header: 
  seq: 0
  stamp: 
    secs: 8603
    nsecs: 168000000
  frame_id: "map"
pose: 
  pose: 
    position: 
      x: -0.0389404296875
      y: 0.0484771728515625
      z: 0.05499089136719704
    orientation: 
      x: -4.036587686204313e-06
      y: 5.785049984149562e-06
      z: 0.6562065964924287
      w: 0.7545812678155236
  covariance: [0.0001, 0.0, 0.0, 0.0, 0.0, 0.0, 0.0, 0.0001, 0.0, 0.0, 0.0, 0.0, 0.0, 0.0, 1e-08, 0.0, 0.0, 0.0, 0.0, 0.0, 0.0, 3e-08, 0.0, 0.0, 0.0, 0.0, 0.0, 0.0, 3e-08, 0.0, 0.0, 0.0, 0.0, 0.0, 0.0, 0.01]
---
header: 
  seq: 1
  stamp: 
    secs: 8604
    nsecs: 168000000
  frame_id: "map"
pose: 
  pose: 
    position: 
      x: -0.038979530334472656
      y: 0.04848825931549072
      z: 0.054991383105516434
    orientation: 
      x: 2.873345546051931e-06
      y: 2.521212771759945e-07
      z: 0.6562327002159701
      w: 0.7545585182493749
  covariance: [0.0001, 0.0, 0.0, 0.0, 0.0, 0.0, 0.0, 0.0001, 0.0, 0.0, 0.0, 0.0, 0.0, 0.0, 1e-08, 0.0, 0.0, 0.0, 0.0, 0.0, 0.0, 3e-08, 0.0, 0.0, 0.0, 0.0, 0.0, 0.0, 3e-08, 0.0, 0.0, 0.0, 0.0, 0.0, 0.0, 0.01]
---
header: 
  seq: 2
  stamp: 
    secs: 8605
    nsecs: 168000000
  frame_id: "map"
pose: 
  pose: 
    position: 
      x: 0.8736070394515991
      y: -1.3112237453460693
      z: 0.05500010773539543
    orientation: 
      x: 2.6252841625283406e-06
      y: 8.199301638901715e-06
      z: -0.8811668654383226
      w: 0.4728053784946789
  covariance: [1.7588961900244747e-05, 3.155242213861086e-14, 0.0, 0.0, 0.0, -1.582835542510837e-10, 3.155242213861086e-14, 1.758896200534829e-05, 0.0, 0.0, 0.0, -5.711221435426375e-10, 0.0, 0.0, 1e-08, 0.0, 0.0, 0.0, 0.0, 0.0, 0.0, 3e-08, 0.0, 0.0, 0.0, 0.0, 0.0, 0.0, 3e-08, 0.0, -1.582835542510837e-10, -5.711221435426375e-10, 0.0, 0.0, 0.0, 2.925058288877501e-06]
---
header: 
  seq: 3
  stamp: 
    secs: 8606
    nsecs: 168000000
  frame_id: "map"
pose: 
  pose: 
    position: 
      x: 0.8737744092941284
      y: -1.3117485046386719
      z: 0.05499109998345375
    orientation: 
      x: 6.3303068847596125e-06
      y: 1.9702983162563438e-06
      z: -0.8811011817755354
      w: 0.47292782297482705
  covariance: [1.8713113854262496e-05, 2.6452219189720307e-10, 0.0, 0.0, 0.0, -3.2675531623664655e-08, 2.6452219189720307e-10, 1.8712963951722283e-05, 0.0, 0.0, 0.0, -2.470399579433218e-08, 0.0, 0.0, 1e-08, 0.0, 0.0, 0.0, 0.0, 0.0, 0.0, 3e-08, 0.0, 0.0, 0.0, 0.0, 0.0, 0.0, 3e-08, 0.0, -3.2675531623664655e-08, -2.470399579433218e-08, 0.0, 0.0, 0.0, 3.0515925792549895e-06]
---
header: 
  seq: 4
  stamp: 
    secs: 8607
    nsecs: 168000000
  frame_id: "map"
pose: 
  pose: 
    position: 
      x: 0.8736292719841003
      y: -1.3124701976776123
      z: 0.05499999225139618
    orientation: 
      x: -5.951964116514177e-07
      y: 1.332668201901152e-06
      z: -0.8811243846997773
      w: 0.4728845902343848
  covariance: [2.0436857029840574e-05, 3.3266757745188343e-10, 0.0, 0.0, 0.0, -3.59354768493225e-08, 3.3266757745188343e-10, 2.043672381913509e-05, 0.0, 0.0, 0.0, -2.9474831206910998e-08, 0.0, 0.0, 1e-08, 0.0, 0.0, 0.0, 0.0, 0.0, 0.0, 3e-08, 0.0, 0.0, 0.0, 0.0, 0.0, 0.0, 3e-08, 0.0, -3.59354768493225e-08, -2.9474831206910998e-08, 0.0, 0.0, 0.0, 3.2835313624866255e-06]
---
header: 
  seq: 5
  stamp: 
    secs: 8608
    nsecs: 168000000
  frame_id: "map"
pose: 
  pose: 
    position: 
      x: 0.8737956881523132
      y: -1.311955213546753
      z: 0.05499996617436409
    orientation: 
      x: 2.060380459802199e-06
      y: 3.2752933623312243e-06
      z: -0.8811020950217143
      w: 0.4729261489567773
  covariance: [1.4133604725248274e-05, 4.0436957777957096e-08, 0.0, 0.0, 0.0, -2.1859913655152012e-07, 4.0436957777957096e-08, 1.418045807586127e-05, 0.0, 0.0, 0.0, -3.7932564028711204e-07, 0.0, 0.0, 1e-08, 0.0, 0.0, 0.0, 0.0, 0.0, 0.0, 3e-08, 0.0, 0.0, 0.0, 0.0, 0.0, 0.0, 3e-08, 0.0, -2.1859913655152012e-07, -3.7932564028711204e-07, 0.0, 0.0, 0.0, 2.0509468660992533e-06]
---
header: 
  seq: 6
  stamp: 
    secs: 8609
    nsecs: 168000000
  frame_id: "map"
pose: 
  pose: 
    position: 
      x: 0.8750715255737305
      y: -1.3120739459991455
      z: 0.05499047040939331
    orientation: 
      x: 1.2928120572976278e-06
      y: 9.35488113711224e-07
      z: -0.8810700293667961
      w: 0.4729858111851345
  covariance: [1.4376042781254995e-05, 5.022510699490103e-08, 0.0, 0.0, 0.0, -2.4236835204418534e-07, 5.022510699490103e-08, 1.443452605364131e-05, 0.0, 0.0, 0.0, -4.2168623914559234e-07, 0.0, 0.0, 1e-08, 0.0, 0.0, 0.0, 0.0, 0.0, 0.0, 3e-08, 0.0, 0.0, 0.0, 0.0, 0.0, 0.0, 3e-08, 0.0, -2.4236835204418534e-07, -4.2168623914559234e-07, 0.0, 0.0, 0.0, 2.0652620200731204e-06]
---
header: 
  seq: 7
  stamp: 
    secs: 8610
    nsecs: 168000000
  frame_id: "map"
pose: 
  pose: 
    position: 
      x: 0.8744027614593506
      y: -1.311584711074829
      z: 0.05500023812055588
    orientation: 
      x: -1.5466278438501712e-06
      y: -7.213632329873142e-07
      z: -0.8810071461763347
      w: 0.4731029561844502
  covariance: [1.6459359893490477e-05, 6.224707690567124e-08, 0.0, 0.0, 0.0, -2.8651081032363405e-07, 6.224707690567124e-08, 1.6530459025482293e-05, 0.0, 0.0, 0.0, -4.936046792217395e-07, 0.0, 0.0, 1e-08, 0.0, 0.0, 0.0, 0.0, 0.0, 0.0, 3e-08, 0.0, 0.0, 0.0, 0.0, 0.0, 0.0, 3e-08, 0.0, -2.8651081032363405e-07, -4.936046792217395e-07, 0.0, 0.0, 0.0, 2.3170119820225485e-06]
---
header: 
  seq: 8
  stamp: 
    secs: 8611
    nsecs: 168000000
  frame_id: "map"
pose: 
  pose: 
    position: 
      x: 0.8749966025352478
      y: -1.3118939399719238
      z: 0.05499378591775894
    orientation: 
      x: -2.3291376292981523e-05
      y: -1.1232250466319987e-05
      z: -0.8810295397366713
      w: 0.47306126507799795
  covariance: [1.499507623891712e-05, 5.641876074391231e-08, 0.0, 0.0, 0.0, -2.601318407706032e-07, 5.641876074391231e-08, 1.5059859872541647e-05, 0.0, 0.0, 0.0, -4.4946627352914497e-07, 0.0, 0.0, 1e-08, 0.0, 0.0, 0.0, 0.0, 0.0, 0.0, 3e-08, 0.0, 0.0, 0.0, 0.0, 0.0, 0.0, 3e-08, 0.0, -2.601318407706032e-07, -4.4946627352914497e-07, 0.0, 0.0, 0.0, 2.119118744930251e-06]
---
header: 
  seq: 9
  stamp: 
    secs: 8612
    nsecs: 168000000
  frame_id: "map"
pose: 
  pose: 
    position: 
      x: 0.6023306250572205
      y: -1.7200472354888916
      z: 0.05505860596895218
    orientation: 
      x: -0.00047278214736099037
      y: -0.0002482961708219019
      z: -0.8811684212226732
      w: 0.47280224385995456
  covariance: [1.0006826760717217e-06, -2.1732246298131008e-11, 0.0, 0.0, 0.0, -5.183870265615556e-10, -2.1732246298131008e-11, 1.0007072726930124e-06, 0.0, 0.0, 0.0, -5.141382397318784e-10, 0.0, 0.0, 1e-08, 0.0, 0.0, 0.0, 0.0, 0.0, 0.0, 3e-08, 0.0, 0.0, 0.0, 0.0, 0.0, 0.0, 3e-08, 0.0, -5.183870265615556e-10, -5.141382397318784e-10, 0.0, 0.0, 0.0, 1.0230961769161499e-06]
---
header: 
  seq: 10
  stamp: 
    secs: 8613
    nsecs: 168000000
  frame_id: "map"
pose: 
  pose: 
    position: 
      x: 0.4012342393398285
      y: -2.0252442359924316
      z: 0.05521029233932495
    orientation: 
      x: 0.0019016574911978454
      y: 0.0007956317430621587
      z: -0.9230501233793192
      w: 0.38467423600738443
  covariance: [9.995164361455252e-07, -6.259635400156687e-12, 0.0, 0.0, 0.0, -4.598283274760703e-10, -6.259635400156687e-12, 9.995110724234333e-07, 0.0, 0.0, 0.0, 2.50703002157489e-10, 0.0, 0.0, 1e-08, 0.0, 0.0, 0.0, 0.0, 0.0, 0.0, 3e-08, 0.0, 0.0, 0.0, 0.0, 0.0, 0.0, 3e-08, 0.0, -4.598283274760703e-10, 2.50703002157489e-10, 0.0, 0.0, 0.0, 1.0239371508522157e-06]
---
header: 
  seq: 11
  stamp: 
    secs: 8614
    nsecs: 168000000
  frame_id: "map"
pose: 
  pose: 
    position: 
      x: 0.39659494161605835
      y: -2.027742624282837
      z: 0.05502906069159508
    orientation: 
      x: 0.00025736528831968775
      y: -2.4527600651799014e-05
      z: 0.9975915456175762
      w: 0.06936191576639814
  covariance: [9.995028960905474e-07, -1.107259787156403e-13, 0.0, 0.0, 0.0, -4.3973131084164824e-10, -1.107259787156403e-13, 9.995027714282727e-07, 0.0, 0.0, 0.0, 2.5430324308367364e-10, 0.0, 0.0, 1e-08, 0.0, 0.0, 0.0, 0.0, 0.0, 0.0, 3e-08, 0.0, 0.0, 0.0, 0.0, 0.0, 0.0, 3e-08, 0.0, -4.3973131084164824e-10, 2.5430324308367364e-10, 0.0, 0.0, 0.0, 1.0239300734060788e-06]
---
header: 
  seq: 12
  stamp: 
    secs: 8615
    nsecs: 168000000
  frame_id: "map"
pose: 
  pose: 
    position: 
      x: 0.04088214412331581
      y: -1.8694876432418823
      z: 0.0550822988152504
    orientation: 
      x: 0.0007331643767522373
      y: -0.00015432197396735256
      z: 0.9792196744747372
      w: 0.20280100300849038
  covariance: [9.995338766040467e-07, 5.618756369351725e-12, 0.0, 0.0, 0.0, -3.5777460588569484e-10, 5.618756369351725e-12, 9.9954388848027e-07, 0.0, 0.0, 0.0, 8.057586641881436e-11, 0.0, 0.0, 1e-08, 0.0, 0.0, 0.0, 0.0, 0.0, 0.0, 3e-08, 0.0, 0.0, 0.0, 0.0, 0.0, 0.0, 3e-08, 0.0, -3.5777460588569484e-10, 8.057586641881436e-11, 0.0, 0.0, 0.0, 1.0242113853380898e-06]
---
header: 
  seq: 13
  stamp: 
    secs: 8616
    nsecs: 168000000
  frame_id: "map"
pose: 
  pose: 
    position: 
      x: -0.418800950050354
      y: -1.6717007160186768
      z: 0.054992303252220154
    orientation: 
      x: -1.2355116860901411e-06
      y: -2.8983779992568945e-06
      z: 0.9792438165558557
      w: 0.2026859690067905
  covariance: [9.994941120725002e-07, 9.121264091369688e-12, 0.0, 0.0, 0.0, -4.428271037557362e-10, 9.121264091369688e-12, 9.995111258730444e-07, 0.0, 0.0, 0.0, -2.3904687065703787e-11, 0.0, 0.0, 1e-08, 0.0, 0.0, 0.0, 0.0, 0.0, 0.0, 3e-08, 0.0, 0.0, 0.0, 0.0, 0.0, 0.0, 3e-08, 0.0, -4.428271037557362e-10, -2.3904687065703787e-11, 0.0, 0.0, 0.0, 1.0236733191444629e-06]
---
header: 
  seq: 14
  stamp: 
    secs: 8617
    nsecs: 168000000
  frame_id: "map"
pose: 
  pose: 
    position: 
      x: -0.8785537481307983
      y: -1.4725079536437988
      z: 0.05499167740345001
    orientation: 
      x: -3.758743373505402e-07
      y: -2.305969511679036e-06
      z: 0.9792079341930846
      w: 0.20285928297179887
  covariance: [9.995335740204096e-07, 9.33334807005405e-12, 0.0, 0.0, 0.0, -1.5492168773991744e-10, 9.33334807005405e-12, 9.995517289126216e-07, 0.0, 0.0, 0.0, -1.022266553727754e-09, 0.0, 0.0, 1e-08, 0.0, 0.0, 0.0, 0.0, 0.0, 0.0, 3e-08, 0.0, 0.0, 0.0, 0.0, 0.0, 0.0, 3e-08, 0.0, -1.5492168773991744e-10, -1.022266553727754e-09, 0.0, 0.0, 0.0, 1.0208369519916339e-06]
---
header: 
  seq: 15
  stamp: 
    secs: 8618
    nsecs: 168000000
  frame_id: "map"
pose: 
  pose: 
    position: 
      x: -1.3374724388122559
      y: -1.2751920223236084
      z: 0.054999977350234985
    orientation: 
      x: 4.689640432037934e-07
      y: -5.311498017106508e-06
      z: 0.9792004775574399
      w: 0.20289512840477777
  covariance: [9.995345682416212e-07, 8.523844416424255e-12, 0.0, 0.0, 0.0, 5.174370942607727e-10, 8.523844416424255e-12, 9.995525985180838e-07, 0.0, 0.0, 0.0, -1.0528640028158056e-09, 0.0, 0.0, 1e-08, 0.0, 0.0, 0.0, 0.0, 0.0, 0.0, 3e-08, 0.0, 0.0, 0.0, 0.0, 0.0, 0.0, 3e-08, 0.0, 5.174370942607727e-10, -1.0528640028158056e-09, 0.0, 0.0, 0.0, 1.0199754874100843e-06]
---
header: 
  seq: 16
  stamp: 
    secs: 8619
    nsecs: 168000000
  frame_id: "map"
pose: 
  pose: 
    position: 
      x: -1.718949317932129
      y: -1.1125513315200806
      z: 0.055216819047927856
    orientation: 
      x: 0.0018832921273686128
      y: -0.0004937855924587582
      z: 0.967966447324069
      w: 0.2510721946848342
  covariance: [9.996112648449636e-07, 5.83474705769246e-12, 0.0, 0.0, 0.0, 4.156952876899866e-10, 5.83474705769246e-12, 9.996237929372287e-07, 0.0, 0.0, 0.0, -8.626140205069462e-10, 0.0, 0.0, 1e-08, 0.0, 0.0, 0.0, 0.0, 0.0, 0.0, 3e-08, 0.0, 0.0, 0.0, 0.0, 0.0, 0.0, 3e-08, 0.0, 4.156952876899866e-10, -8.626140205069462e-10, 0.0, 0.0, 0.0, 1.0218223025659577e-06]
---
header: 
  seq: 17
  stamp: 
    secs: 8620
    nsecs: 168000000
  frame_id: "map"
pose: 
  pose: 
    position: 
      x: -1.7250957489013672
      y: -1.1051671504974365
      z: 0.0550156868994236
    orientation: 
      x: 0.00012554189078555484
      y: -0.00011757968853400183
      z: 0.751579049868487
      w: 0.6596431092181312
  covariance: [9.995635731769797e-07, -4.93992933560835e-13, 0.0, 0.0, 0.0, 4.908385402891196e-10, -4.93992933560835e-13, 9.995643948340909e-07, 0.0, 0.0, 0.0, -1.0383575247596924e-09, 0.0, 0.0, 1e-08, 0.0, 0.0, 0.0, 0.0, 0.0, 0.0, 3e-08, 0.0, 0.0, 0.0, 0.0, 0.0, 0.0, 3e-08, 0.0, 4.908385402891196e-10, -1.0383575247596924e-09, 0.0, 0.0, 0.0, 1.0204136398381775e-06]
---
header: 
  seq: 18
  stamp: 
    secs: 8621
    nsecs: 168000000
  frame_id: "map"
pose: 
  pose: 
    position: 
      x: -1.7404955625534058
      y: -0.6196153163909912
      z: 0.05502833053469658
    orientation: 
      x: -0.00027107742612801703
      y: 0.00025622608520442996
      z: 0.7191304890008834
      w: 0.6948749901671528
  covariance: [9.995727649683592e-07, 4.1619725899301034e-13, 0.0, 0.0, 0.0, 3.9279320051286344e-10, 4.1619725899301034e-13, 9.995501239950466e-07, 0.0, 0.0, 0.0, -9.805999286901823e-10, 0.0, 0.0, 1e-08, 0.0, 0.0, 0.0, 0.0, 0.0, 0.0, 3e-08, 0.0, 0.0, 0.0, 0.0, 0.0, 0.0, 3e-08, 0.0, 3.9279320051286344e-10, -9.805999286901823e-10, 0.0, 0.0, 0.0, 1.0207391718156397e-06]
---
header: 
  seq: 19
  stamp: 
    secs: 8622
    nsecs: 168000000
  frame_id: "map"
pose: 
  pose: 
    position: 
      x: -1.7593839168548584
      y: -0.11760634928941727
      z: 0.05500008538365364
    orientation: 
      x: -3.6245921077881305e-06
      y: 1.3509110957860294e-06
      z: 0.7190971057459252
      w: 0.6949096112512012
  covariance: [9.995860143985752e-07, 6.849522801414166e-13, 0.0, 0.0, 0.0, 3.012158905317669e-10, 6.849522801414166e-13, 9.995619279660434e-07, 0.0, 0.0, 0.0, -1.03748405633724e-09, 0.0, 0.0, 1e-08, 0.0, 0.0, 0.0, 0.0, 0.0, 0.0, 3e-08, 0.0, 0.0, 0.0, 0.0, 0.0, 0.0, 3e-08, 0.0, 3.012158905317669e-10, -1.03748405633724e-09, 0.0, 0.0, 0.0, 1.0205451285431506e-06]
---
header: 
  seq: 20
  stamp: 
    secs: 8623
    nsecs: 168000000
  frame_id: "map"
pose: 
  pose: 
    position: 
      x: -1.775272011756897
      y: 0.3797612488269806
      z: 0.055000051856040955
    orientation: 
      x: -1.7348159163160731e-06
      y: -4.250594846528904e-07
      z: 0.7192417018605634
      w: 0.6947599208352692
  covariance: [9.995601860828275e-07, 6.718310036029802e-13, 0.0, 0.0, 0.0, 1.9136150415069474e-10, 6.718310036029802e-13, 9.995363067004917e-07, 0.0, 0.0, 0.0, -8.842020051007215e-10, 0.0, 0.0, 1e-08, 0.0, 0.0, 0.0, 0.0, 0.0, 0.0, 3e-08, 0.0, 0.0, 0.0, 0.0, 0.0, 0.0, 3e-08, 0.0, 1.9136150415069474e-10, -8.842020051007215e-10, 0.0, 0.0, 0.0, 1.0210035623539527e-06]
---
header: 
  seq: 21
  stamp: 
    secs: 8624
    nsecs: 168000000
  frame_id: "map"
pose: 
  pose: 
    position: 
      x: -1.793806552886963
      y: 0.8791192173957825
      z: 0.05500004068017006
    orientation: 
      x: -1.2795250829967976e-06
      y: -9.131692442304822e-07
      z: 0.7191072942329846
      w: 0.694899061063318
  covariance: [3.3322054316889843e-05, -8.039633799587259e-09, 0.0, 0.0, 0.0, 3.6779363340898794e-07, -8.039633799587259e-09, 3.32742968306587e-05, 0.0, 0.0, 0.0, -1.4115934630299638e-07, 0.0, 0.0, 1e-08, 0.0, 0.0, 0.0, 0.0, 0.0, 0.0, 3e-08, 0.0, 0.0, 0.0, 0.0, 0.0, 0.0, 3e-08, 0.0, 3.6779363340898794e-07, -1.4115934630299638e-07, 0.0, 0.0, 0.0, 5.6994161341692705e-06]
---
header: 
  seq: 22
  stamp: 
    secs: 8625
    nsecs: 168000000
  frame_id: "map"
pose: 
  pose: 
    position: 
      x: -1.8109081983566284
      y: 1.3781801462173462
      z: 0.05499963462352753
    orientation: 
      x: -4.193695182333771e-06
      y: 1.044578359721489e-06
      z: 0.7191310090379264
      w: 0.6948745291128963
  covariance: [3.788855136532872e-05, -2.468466521165532e-09, 0.0, 0.0, 0.0, 3.8622342589503304e-07, -2.468466521165532e-09, 3.778102076007427e-05, 0.0, 0.0, 0.0, -1.679762637741979e-07, 0.0, 0.0, 1e-08, 0.0, 0.0, 0.0, 0.0, 0.0, 0.0, 3e-08, 0.0, 0.0, 0.0, 0.0, 0.0, 0.0, 3e-08, 0.0, 3.8622342589503304e-07, -1.679762637741979e-07, 0.0, 0.0, 0.0, 5.980251862248978e-06]
---
header: 
  seq: 23
  stamp: 
    secs: 8626
    nsecs: 168000000
  frame_id: "map"
pose: 
  pose: 
    position: 
      x: -1.827721118927002
      y: 1.877699851989746
      z: 0.0550004243850708
    orientation: 
      x: -5.857789129488046e-07
      y: -3.868339583887061e-06
      z: 0.7193512481616303
      w: 0.6946465378326506
  covariance: [0.0001263397249750646, 5.226248666685915e-07, 0.0, 0.0, 0.0, -3.3925517436987966e-06, 5.226248666685915e-07, 0.00012647265048858103, 0.0, 0.0, 0.0, -1.0245733648370624e-05, 0.0, 0.0, 1e-08, 0.0, 0.0, 0.0, 0.0, 0.0, 0.0, 3e-08, 0.0, 0.0, 0.0, 0.0, 0.0, 0.0, 3e-08, 0.0, -3.3925517436987966e-06, -1.0245733648370624e-05, 0.0, 0.0, 0.0, 8.28892852334051e-05]
---
header: 
  seq: 24
  stamp: 
    secs: 8627
    nsecs: 168000000
  frame_id: "map"
pose: 
  pose: 
    position: 
      x: -1.8451963663101196
      y: 2.3775076866149902
      z: 0.05500008910894394
    orientation: 
      x: -2.5668901597720035e-06
      y: 6.877534666110991e-07
      z: 0.7193856383040447
      w: 0.694610927547015
  covariance: [0.00021214561532730176, 6.5631991523482496e-06, 0.0, 0.0, 0.0, -8.580114285683513e-06, 6.5631991523482496e-06, 0.00019822277354547923, 0.0, 0.0, 0.0, -1.7342805182990595e-05, 0.0, 0.0, 1e-08, 0.0, 0.0, 0.0, 0.0, 0.0, 0.0, 3e-08, 0.0, 0.0, 0.0, 0.0, 0.0, 0.0, 3e-08, 0.0, -8.580114285683513e-06, -1.7342805182990595e-05, 0.0, 0.0, 0.0, 7.599628408640487e-05]
---
header: 
  seq: 25
  stamp: 
    secs: 8628
    nsecs: 168000000
  frame_id: "map"
pose: 
  pose: 
    position: 
      x: -1.8627206087112427
      y: 2.8793468475341797
      z: 0.054999977350234985
    orientation: 
      x: -2.387274345224829e-06
      y: -4.802897049178203e-06
      z: 0.719345192212603
      w: 0.6946527587193335
  covariance: [4.210797871414814e-05, 2.590106487239338e-07, 0.0, 0.0, 0.0, 2.91041973557273e-07, 2.590106487239338e-07, 4.14064989286466e-05, 0.0, 0.0, 0.0, -2.974652672201763e-07, 0.0, 0.0, 1e-08, 0.0, 0.0, 0.0, 0.0, 0.0, 0.0, 3e-08, 0.0, 0.0, 0.0, 0.0, 0.0, 0.0, 3e-08, 0.0, 2.91041973557273e-07, -2.974652672201763e-07, 0.0, 0.0, 0.0, 5.407622913146746e-06]
---
header: 
  seq: 26
  stamp: 
    secs: 8629
    nsecs: 168000000
  frame_id: "map"
pose: 
  pose: 
    position: 
      x: -1.8763811588287354
      y: 3.290735960006714
      z: 0.055278073996305466
    orientation: 
      x: 0.0017811576240942737
      y: -0.0017268145576028776
      z: 0.7194222137454521
      w: 0.694568654051894
  covariance: [2.195817471963631e-05, 1.1773893144933512e-08, 0.0, 0.0, 0.0, -6.884494734624564e-08, 1.1773893144933512e-08, 2.192716727726637e-05, 0.0, 0.0, 0.0, -1.0059127306004451e-07, 0.0, 0.0, 1e-08, 0.0, 0.0, 0.0, 0.0, 0.0, 0.0, 3e-08, 0.0, 0.0, 0.0, 0.0, 0.0, 0.0, 3e-08, 0.0, -6.884494734624564e-08, -1.0059127306004451e-07, 0.0, 0.0, 0.0, 3.3678892912915528e-06]
---
header: 
  seq: 27
  stamp: 
    secs: 8630
    nsecs: 168000000
  frame_id: "map"
pose: 
  pose: 
    position: 
      x: -1.8770002126693726
      y: 3.2914795875549316
      z: 0.05505434423685074
    orientation: 
      x: -0.0004588504315813386
      y: 0.00043770079483724383
      z: 0.71936069276686
      w: 0.6946364234100328
  covariance: [2.2491556120395613e-05, 3.183695496724744e-09, 0.0, 0.0, 0.0, -8.003420055156819e-08, 3.183695496724744e-09, 2.2492207439186272e-05, 0.0, 0.0, 0.0, -1.1584052479808956e-07, 0.0, 0.0, 1e-08, 0.0, 0.0, 0.0, 0.0, 0.0, 0.0, 3e-08, 0.0, 0.0, 0.0, 0.0, 0.0, 0.0, 3e-08, 0.0, -8.003420055156819e-08, -1.1584052479808956e-07, 0.0, 0.0, 0.0, 3.4732688945336717e-06]
---
header: 
  seq: 28
  stamp: 
    secs: 8631
    nsecs: 168000000
  frame_id: "map"
pose: 
  pose: 
    position: 
      x: -1.8765612840652466
      y: 3.2829887866973877
      z: 0.05500943586230278
    orientation: 
      x: 3.6425437779761814e-05
      y: 3.896150538826456e-06
      z: 0.9354990268011042
      w: 0.3533293109478115
  covariance: [4.206095165649095e-05, 1.7380562902554886e-08, 0.0, 0.0, 0.0, -2.796048314495998e-07, 1.7380562902554886e-08, 4.2075109185718436e-05, 0.0, 0.0, 0.0, -4.159491539027193e-07, 0.0, 0.0, 1e-08, 0.0, 0.0, 0.0, 0.0, 0.0, 0.0, 3e-08, 0.0, 0.0, 0.0, 0.0, 0.0, 0.0, 3e-08, 0.0, -2.796048314495998e-07, -4.159491539027193e-07, 0.0, 0.0, 0.0, 6.791866182589884e-06]
---
header: 
  seq: 29
  stamp: 
    secs: 8632
    nsecs: 168000000
  frame_id: "map"
pose: 
  pose: 
    position: 
      x: -2.0053460597991943
      y: 3.287097454071045
      z: 0.05524936690926552
    orientation: 
      x: 0.002225072747345584
      y: -6.99678953610986e-05
      z: 0.9995203656082071
      w: 0.030888812473734536
  covariance: [3.9499153784132234e-05, -9.420222409851368e-11, 0.0, 0.0, 0.0, -1.3817948214389812e-07, -9.420222409851368e-11, 3.952084198898069e-05, 0.0, 0.0, 0.0, 2.0433589245769803e-07, 0.0, 0.0, 1e-08, 0.0, 0.0, 0.0, 0.0, 0.0, 0.0, 3e-08, 0.0, 0.0, 0.0, 0.0, 0.0, 0.0, 3e-08, 0.0, -1.3817948214389812e-07, 2.0433589245769803e-07, 0.0, 0.0, 0.0, 6.096588910396603e-06]
---
header: 
  seq: 30
  stamp: 
    secs: 8633
    nsecs: 168000000
  frame_id: "map"
pose: 
  pose: 
    position: 
      x: -2.5051193237304688
      y: 3.3185455799102783
      z: 0.055001240223646164
    orientation: 
      x: -1.3910087808007512e-05
      y: -8.584354132080442e-07
      z: 0.9995336637338104
      w: 0.030536530909034056
  covariance: [3.0167532178911962e-05, 3.304335519949956e-09, 0.0, 0.0, 0.0, -1.3810810340382543e-07, 3.304335519949956e-09, 3.022842734735845e-05, 0.0, 0.0, 0.0, 1.2972206166956362e-07, 0.0, 0.0, 1e-08, 0.0, 0.0, 0.0, 0.0, 0.0, 0.0, 3e-08, 0.0, 0.0, 0.0, 0.0, 0.0, 0.0, 3e-08, 0.0, -1.3810810340382543e-07, 1.2972206166956362e-07, 0.0, 0.0, 0.0, 4.456976332581093e-06]
---
header: 
  seq: 31
  stamp: 
    secs: 8634
    nsecs: 168000000
  frame_id: "map"
pose: 
  pose: 
    position: 
      x: -3.004781484603882
      y: 3.349734306335449
      z: 0.05500040203332901
    orientation: 
      x: -7.669102097509599e-06
      y: -3.485815971710501e-07
      z: 0.9995198289088406
      w: 0.03098529520610945
  covariance: [2.6014909882386248e-05, 1.730971695320175e-09, 0.0, 0.0, 0.0, -8.429677419982936e-08, 1.730971695320175e-09, 2.6061749535029854e-05, 0.0, 0.0, 0.0, 1.7528535228783924e-07, 0.0, 0.0, 1e-08, 0.0, 0.0, 0.0, 0.0, 0.0, 0.0, 3e-08, 0.0, 0.0, 0.0, 0.0, 0.0, 0.0, 3e-08, 0.0, -8.429677419982936e-08, 1.7528535228783924e-07, 0.0, 0.0, 0.0, 3.963890362764249e-06]
---
header: 
  seq: 32
  stamp: 
    secs: 8635
    nsecs: 168000000
  frame_id: "map"
pose: 
  pose: 
    position: 
      x: -3.5035665035247803
      y: 3.378387451171875
      z: 0.05499958619475365
    orientation: 
      x: -7.934023959615093e-06
      y: -1.365881174118657e-07
      z: 0.9995307417393153
      w: 0.030631160255922787
  covariance: [2.5210376593029094e-05, 1.5324831573497943e-09, 0.0, 0.0, 0.0, -3.392469121358496e-08, 1.5324831573497943e-09, 2.526182788579573e-05, 0.0, 0.0, 0.0, 2.676159656080082e-07, 0.0, 0.0, 1e-08, 0.0, 0.0, 0.0, 0.0, 0.0, 0.0, 3e-08, 0.0, 0.0, 0.0, 0.0, 0.0, 0.0, 3e-08, 0.0, -3.392469121358496e-08, 2.676159656080082e-07, 0.0, 0.0, 0.0, 3.997805023583177e-06]
---
header: 
  seq: 33
  stamp: 
    secs: 8636
    nsecs: 168000000
  frame_id: "map"
pose: 
  pose: 
    position: 
      x: -4.001583099365234
      y: 3.409545421600342
      z: 0.055000271648168564
    orientation: 
      x: 1.968394829318094e-06
      y: 1.2618084142986928e-06
      z: 0.9995212004733155
      w: 0.030942803168757593
  covariance: [3.405570339078479e-05, 2.6556368470819537e-09, 0.0, 0.0, 0.0, -1.0297772486764174e-07, 2.6556368470819537e-09, 3.411406925743876e-05, 0.0, 0.0, 0.0, 1.3981910396807064e-07, 0.0, 0.0, 1e-08, 0.0, 0.0, 0.0, 0.0, 0.0, 0.0, 3e-08, 0.0, 0.0, 0.0, 0.0, 0.0, 0.0, 3e-08, 0.0, -1.0297772486764174e-07, 1.3981910396807064e-07, 0.0, 0.0, 0.0, 5.443401195084401e-06]
---
header: 
  seq: 34
  stamp: 
    secs: 8637
    nsecs: 168000000
  frame_id: "map"
pose: 
  pose: 
    position: 
      x: -4.067938804626465
      y: 3.4128174781799316
      z: 0.05510222911834717
    orientation: 
      x: -0.0010212744329351744
      y: 2.6481754676353215e-05
      z: 0.9995310920809427
      w: 0.03060379678810509
  covariance: [1.6214555043078448e-05, 5.19349096525671e-10, 0.0, 0.0, 0.0, -2.7257976701065845e-08, 5.19349096525671e-10, 1.6215838038261056e-05, 0.0, 0.0, 0.0, -3.373065484576396e-08, 0.0, 0.0, 1e-08, 0.0, 0.0, 0.0, 0.0, 0.0, 0.0, 3e-08, 0.0, 0.0, 0.0, 0.0, 0.0, 0.0, 3e-08, 0.0, -2.7257976701065845e-08, -3.373065484576396e-08, 0.0, 0.0, 0.0, 2.691845394604867e-06]
---
header: 
  seq: 35
  stamp: 
    secs: 8638
    nsecs: 168000000
  frame_id: "map"
pose: 
  pose: 
    position: 
      x: -4.05800199508667
      y: 3.4138519763946533
      z: 0.05501236021518707
    orientation: 
      x: 2.5249073144808214e-06
      y: 6.491859568019311e-05
      z: -0.9301868027562262
      w: 0.3670864874230824
  covariance: [3.9895290276818055e-05, 3.0110462372421853e-09, 0.0, 0.0, 0.0, -1.4467864679901802e-07, 3.0110462372421853e-09, 3.989522390538642e-05, 0.0, 0.0, 0.0, -1.4078301709486256e-07, 0.0, 0.0, 1e-08, 0.0, 0.0, 0.0, 0.0, 0.0, 0.0, 3e-08, 0.0, 0.0, 0.0, 0.0, 0.0, 0.0, 3e-08, 0.0, -1.4467864679901802e-07, -1.4078301709486256e-07, 0.0, 0.0, 0.0, 6.832591715559675e-06]
---
header: 
  seq: 36
  stamp: 
    secs: 8639
    nsecs: 168000000
  frame_id: "map"
pose: 
  pose: 
    position: 
      x: -4.057385444641113
      y: 3.414222240447998
      z: 0.0550004243850708
    orientation: 
      x: 6.111581330756275e-05
      y: 6.049682503816577e-05
      z: -0.732081452724985
      w: 0.6812170948166126
  covariance: [2.369277476213586e-05, 5.921671721367678e-10, 0.0, 0.0, 0.0, -4.236485922724041e-08, 5.921671721367678e-10, 2.3692806286286363e-05, 0.0, 0.0, 0.0, -4.424197646233884e-08, 0.0, 0.0, 1e-08, 0.0, 0.0, 0.0, 0.0, 0.0, 0.0, 3e-08, 0.0, 0.0, 0.0, 0.0, 0.0, 0.0, 3e-08, 0.0, -4.236485922724041e-08, -4.424197646233884e-08, 0.0, 0.0, 0.0, 3.703865505222497e-06]
---
header: 
  seq: 37
  stamp: 
    secs: 8640
    nsecs: 168000000
  frame_id: "map"
pose: 
  pose: 
    position: 
      x: -4.057748317718506
      y: 3.4165873527526855
      z: 0.05499924346804619
    orientation: 
      x: -3.875293671263192e-06
      y: 8.794102884701719e-07
      z: -0.622182892924707
      w: 0.7828719659021998
  covariance: [3.420830207309249e-05, 8.44773114766004e-09, 0.0, 0.0, 0.0, -2.743800053750215e-07, 8.44773114766004e-09, 3.4199672820488535e-05, 0.0, 0.0, 0.0, -1.675678833297254e-07, 0.0, 0.0, 1e-08, 0.0, 0.0, 0.0, 0.0, 0.0, 0.0, 3e-08, 0.0, 0.0, 0.0, 0.0, 0.0, 0.0, 3e-08, 0.0, -2.743800053750215e-07, -1.675678833297254e-07, 0.0, 0.0, 0.0, 5.477690315090841e-06]
---
header: 
  seq: 38
  stamp: 
    secs: 8641
    nsecs: 168000000
  frame_id: "map"
pose: 
  pose: 
    position: 
      x: -3.956444501876831
      y: 2.989091157913208
      z: 0.055084433406591415
    orientation: 
      x: 0.0005063026882790812
      y: 0.0006440797302389557
      z: -0.6218093851172913
      w: 0.7831681926290558
  covariance: [2.3537996504174647e-05, 1.4756670072937299e-08, 0.0, 0.0, 0.0, -3.389561382840291e-07, 1.4756670072937299e-08, 2.3487469898410527e-05, 0.0, 0.0, 0.0, -1.1258061047097146e-07, 0.0, 0.0, 1e-08, 0.0, 0.0, 0.0, 0.0, 0.0, 0.0, 3e-08, 0.0, 0.0, 0.0, 0.0, 0.0, 0.0, 3e-08, 0.0, -3.389561382840291e-07, -1.1258061047097146e-07, 0.0, 0.0, 0.0, 3.7029525843234335e-06]
---
header: 
  seq: 39
  stamp: 
    secs: 8642
    nsecs: 168000000
  frame_id: "map"
pose: 
  pose: 
    position: 
      x: -3.8655197620391846
      y: 2.586683988571167
      z: 0.055293042212724686
    orientation: 
      x: -0.0016285775865199522
      y: -0.002046570051539787
      z: -0.6213229530768783
      w: 0.7835502330984889
  covariance: [1.6268794173692284e-05, 1.4195935825566617e-09, 0.0, 0.0, 0.0, -1.6070462532511346e-08, 1.4195935825566617e-09, 1.6262554915683687e-05, 0.0, 0.0, 0.0, -2.348689413542078e-08, 0.0, 0.0, 1e-08, 0.0, 0.0, 0.0, 0.0, 0.0, 0.0, 3e-08, 0.0, 0.0, 0.0, 0.0, 0.0, 0.0, 3e-08, 0.0, -1.6070462532511346e-08, -2.348689413542078e-08, 0.0, 0.0, 0.0, 2.7382925648530475e-06]
---
header: 
  seq: 40
  stamp: 
    secs: 8643
    nsecs: 168000000
  frame_id: "map"
pose: 
  pose: 
    position: 
      x: -3.8660202026367188
      y: 2.588134765625
      z: 0.055127523839473724
    orientation: 
      x: 0.0006254913972970101
      y: 0.001095186689303489
      z: -0.49640466222875856
      w: 0.8680903314406212
  covariance: [2.6915343049634485e-05, 6.105242056187381e-10, 0.0, 0.0, 0.0, -4.000988796470453e-08, 6.105242056187381e-10, 2.6915406346151818e-05, 0.0, 0.0, 0.0, -5.779257962818945e-08, 0.0, 0.0, 1e-08, 0.0, 0.0, 0.0, 0.0, 0.0, 0.0, 3e-08, 0.0, 0.0, 0.0, 0.0, 0.0, 0.0, 3e-08, 0.0, -4.000988796470453e-08, -5.779257962818945e-08, 0.0, 0.0, 0.0, 4.3484377988851205e-06]
---
header: 
  seq: 41
  stamp: 
    secs: 8644
    nsecs: 168000000
  frame_id: "map"
pose: 
  pose: 
    position: 
      x: -3.870506763458252
      y: 2.593815803527832
      z: 0.05500919371843338
    orientation: 
      x: -2.2309183302669165e-05
      y: -4.393636609175345e-05
      z: -0.07702083820832577
      w: 0.9970294820736669
  covariance: [4.1951146599345936e-05, 3.0070937190920264e-09, 0.0, 0.0, 0.0, -1.190108090944669e-07, 3.0070937190920264e-09, 4.195324526674337e-05, 0.0, 0.0, 0.0, -1.6989123314091067e-07, 0.0, 0.0, 1e-08, 0.0, 0.0, 0.0, 0.0, 0.0, 0.0, 3e-08, 0.0, 0.0, 0.0, 0.0, 0.0, 0.0, 3e-08, 0.0, -1.190108090944669e-07, -1.6989123314091067e-07, 0.0, 0.0, 0.0, 7.036156791464183e-06]
---
header: 
  seq: 42
  stamp: 
    secs: 8645
    nsecs: 168000000
  frame_id: "map"
pose: 
  pose: 
    position: 
      x: -3.539978265762329
      y: 2.664426565170288
      z: 0.05516112968325615
    orientation: 
      x: 0.00013554861951903827
      y: -0.0014337099885627061
      z: 0.09719401982493606
      w: 0.9952644111957321
  covariance: [3.0794835161799516e-05, -9.75670824576777e-09, 0.0, 0.0, 0.0, 1.0337710045230773e-08, -9.75670824576777e-09, 3.0863084982910106e-05, 0.0, 0.0, 0.0, -4.362877335033477e-07, 0.0, 0.0, 1e-08, 0.0, 0.0, 0.0, 0.0, 0.0, 0.0, 3e-08, 0.0, 0.0, 0.0, 0.0, 0.0, 0.0, 3e-08, 0.0, 1.0337710045230773e-08, -4.362877335033477e-07, 0.0, 0.0, 0.0, 4.777686959833776e-06]
---
header: 
  seq: 43
  stamp: 
    secs: 8646
    nsecs: 168000000
  frame_id: "map"
pose: 
  pose: 
    position: 
      x: -3.0476021766662598
      y: 2.761597156524658
      z: 0.05499955266714096
    orientation: 
      x: 8.211097226580538e-07
      y: 3.1414700524751826e-06
      z: 0.09764232439129039
      w: 0.9952215677160915
  covariance: [2.845383506292308e-05, -1.0954637538692443e-08, 0.0, 0.0, 0.0, 2.2678117936494913e-08, -1.0954637538692443e-08, 2.85231038010505e-05, 0.0, 0.0, 0.0, -3.904848953207433e-07, 0.0, 0.0, 1e-08, 0.0, 0.0, 0.0, 0.0, 0.0, 0.0, 3e-08, 0.0, 0.0, 0.0, 0.0, 0.0, 0.0, 3e-08, 0.0, 2.2678117936494913e-08, -3.904848953207433e-07, 0.0, 0.0, 0.0, 4.494810110846159e-06]
---
header: 
  seq: 44
  stamp: 
    secs: 8647
    nsecs: 168000000
  frame_id: "map"
pose: 
  pose: 
    position: 
      x: -2.55743670463562
      y: 2.8585970401763916
      z: 0.05500010401010513
    orientation: 
      x: -5.462469577933305e-06
      y: 3.5013984557385798e-06
      z: 0.09770569252192463
      w: 0.9952153540231802
  covariance: [0.00012052254533428645, 9.68372855978441e-08, 0.0, 0.0, 0.0, -5.160214878819644e-06, 9.68372855978441e-08, 0.00012138609698333879, 0.0, 0.0, 0.0, -7.963873995246011e-06, 0.0, 0.0, 1e-08, 0.0, 0.0, 0.0, 0.0, 0.0, 0.0, 3e-08, 0.0, 0.0, 0.0, 0.0, 0.0, 0.0, 3e-08, 0.0, -5.160214878819644e-06, -7.963873995246011e-06, 0.0, 0.0, 0.0, 0.00016377705415751204]
---
header: 
  seq: 45
  stamp: 
    secs: 8648
    nsecs: 168000000
  frame_id: "map"
pose: 
  pose: 
    position: 
      x: -2.0656392574310303
      y: 2.9542927742004395
      z: 0.05499918386340141
    orientation: 
      x: -4.046266623658758e-06
      y: 3.2736917061592713e-06
      z: 0.09816646075930295
      w: 0.9951700153497863
  covariance: [3.5616297896286915e-05, -1.9599415273542897e-07, 0.0, 0.0, 0.0, -1.3541289451994184e-07, -1.9599415273542897e-07, 3.636853896831868e-05, 0.0, 0.0, 0.0, -6.071929600965577e-07, 0.0, 0.0, 1e-08, 0.0, 0.0, 0.0, 0.0, 0.0, 0.0, 3e-08, 0.0, 0.0, 0.0, 0.0, 0.0, 0.0, 3e-08, 0.0, -1.3541289451994184e-07, -6.071929600965577e-07, 0.0, 0.0, 0.0, 4.827060505704644e-06]
---
header: 
  seq: 46
  stamp: 
    secs: 8649
    nsecs: 168000000
  frame_id: "map"
pose: 
  pose: 
    position: 
      x: -1.5726686716079712
      y: 3.0520565509796143
      z: 0.054991673678159714
    orientation: 
      x: -2.496239926207075e-06
      y: 2.708560549815469e-06
      z: 0.0978156971327415
      w: 0.995204543602329
  covariance: [3.216510567421201e-05, -1.0567339002222969e-08, 0.0, 0.0, 0.0, -1.3041885320551512e-07, -1.0567339002222969e-08, 3.228516473143159e-05, 0.0, 0.0, 0.0, -5.082523425791587e-07, 0.0, 0.0, 1e-08, 0.0, 0.0, 0.0, 0.0, 0.0, 0.0, 3e-08, 0.0, 0.0, 0.0, 0.0, 0.0, 0.0, 3e-08, 0.0, -1.3041885320551512e-07, -5.082523425791587e-07, 0.0, 0.0, 0.0, 4.817392438931976e-06]
---
header: 
  seq: 47
  stamp: 
    secs: 8650
    nsecs: 168000000
  frame_id: "map"
pose: 
  pose: 
    position: 
      x: -1.0820393562316895
      y: 3.1506264209747314
      z: 0.05500008538365364
    orientation: 
      x: -1.5319521297081716e-06
      y: 2.3250117667107973e-06
      z: 0.09793104871460342
      w: 0.995193209004499
  covariance: [3.842209035026793e-05, -5.507507310188502e-09, 0.0, 0.0, 0.0, -1.7067355781968857e-07, -5.507507310188502e-09, 3.8530026559546194e-05, 0.0, 0.0, 0.0, -5.637144235398353e-07, 0.0, 0.0, 1e-08, 0.0, 0.0, 0.0, 0.0, 0.0, 0.0, 3e-08, 0.0, 0.0, 0.0, 0.0, 0.0, 0.0, 3e-08, 0.0, -1.7067355781968857e-07, -5.637144235398353e-07, 0.0, 0.0, 0.0, 5.967716515898089e-06]
---
header: 
  seq: 48
  stamp: 
    secs: 8651
    nsecs: 168000000
  frame_id: "map"
pose: 
  pose: 
    position: 
      x: -0.5922929644584656
      y: 3.2492828369140625
      z: 0.05500002205371857
    orientation: 
      x: -5.461393398823954e-06
      y: 3.4161401286173562e-06
      z: 0.09794431731797709
      w: 0.9951918913678419
  covariance: [3.6284871722746376e-05, -4.388043727334163e-09, 0.0, 0.0, 0.0, -1.895771033009378e-07, -4.388043727334163e-09, 3.638648948045278e-05, 0.0, 0.0, 0.0, -5.076798801983487e-07, 0.0, 0.0, 1e-08, 0.0, 0.0, 0.0, 0.0, 0.0, 0.0, 3e-08, 0.0, 0.0, 0.0, 0.0, 0.0, 0.0, 3e-08, 0.0, -1.895771033009378e-07, -5.076798801983487e-07, 0.0, 0.0, 0.0, 5.477448757686027e-06]
---
header: 
  seq: 49
  stamp: 
    secs: 8652
    nsecs: 168000000
  frame_id: "map"
pose: 
  pose: 
    position: 
      x: -0.10247726738452911
      y: 3.3456802368164062
      z: 0.055000510066747665
    orientation: 
      x: -3.6237760026039543e-06
      y: 4.127905616653061e-06
      z: 0.09777009885850439
      w: 0.9952090205083121
  covariance: [4.050313040623146e-05, -1.2370974998223862e-08, 0.0, 0.0, 0.0, -1.7718370067229903e-07, -1.2370974998223862e-08, 4.061384399532792e-05, 0.0, 0.0, 0.0, -5.194963171292679e-07, 0.0, 0.0, 1e-08, 0.0, 0.0, 0.0, 0.0, 0.0, 0.0, 3e-08, 0.0, 0.0, 0.0, 0.0, 0.0, 0.0, 3e-08, 0.0, -1.7718370067229903e-07, -5.194963171292679e-07, 0.0, 0.0, 0.0, 6.309633750285027e-06]
---
header: 
  seq: 50
  stamp: 
    secs: 8653
    nsecs: 168000000
  frame_id: "map"
pose: 
  pose: 
    position: 
      x: 0.38813087344169617
      y: 3.4427499771118164
      z: 0.054999563843011856
    orientation: 
      x: -3.1424950362876454e-06
      y: -1.1393814136704523e-06
      z: 0.09737753111547154
      w: 0.9952475150795267
  covariance: [2.661997123084666e-05, -2.2806019655945996e-08, 0.0, 0.0, 0.0, -2.6517678224949675e-07, -2.2806019655945996e-08, 2.6642324679115123e-05, 0.0, 0.0, 0.0, 1.4028892996055074e-07, 0.0, 0.0, 1e-08, 0.0, 0.0, 0.0, 0.0, 0.0, 0.0, 3e-08, 0.0, 0.0, 0.0, 0.0, 0.0, 0.0, 3e-08, 0.0, -2.6517678224949675e-07, 1.4028892996055074e-07, 0.0, 0.0, 0.0, 3.582607543789935e-06]
---
header: 
  seq: 51
  stamp: 
    secs: 8654
    nsecs: 168000000
  frame_id: "map"
pose: 
  pose: 
    position: 
      x: 0.8786973357200623
      y: 3.539653778076172
      z: 0.05500074103474617
    orientation: 
      x: -3.972088152808028e-06
      y: 2.9779036880948145e-06
      z: 0.09759560943118722
      w: 0.9952261493539674
  covariance: [3.544956286953727e-05, -1.4690169539501941e-08, 0.0, 0.0, 0.0, -1.7186634713682811e-07, -1.4690169539501941e-08, 3.554182204736853e-05, 0.0, 0.0, 0.0, -3.6881110890155135e-07, 0.0, 0.0, 1e-08, 0.0, 0.0, 0.0, 0.0, 0.0, 0.0, 3e-08, 0.0, 0.0, 0.0, 0.0, 0.0, 0.0, 3e-08, 0.0, -1.7186634713682811e-07, -3.6881110890155135e-07, 0.0, 0.0, 0.0, 5.507163904080621e-06]
---
header: 
  seq: 52
  stamp: 
    secs: 8655
    nsecs: 168000000
  frame_id: "map"
pose: 
  pose: 
    position: 
      x: 1.0440025329589844
      y: 3.5657269954681396
      z: 0.05506373941898346
    orientation: 
      x: -0.00010035229055386666
      y: -0.0005698892082796726
      z: -0.16882273148158095
      w: 0.9856462595599537
  covariance: [5.772418744011279e-05, -1.611674606544166e-08, 0.0, 0.0, 0.0, -6.246697681370739e-07, -1.611674606544166e-08, 5.770590365073879e-05, 0.0, 0.0, 0.0, 9.275932068809051e-08, 0.0, 0.0, 1e-08, 0.0, 0.0, 0.0, 0.0, 0.0, 0.0, 3e-08, 0.0, 0.0, 0.0, 0.0, 0.0, 0.0, 3e-08, 0.0, -6.246697681370739e-07, 9.275932068809051e-08, 0.0, 0.0, 0.0, 1.0075391892573188e-05]
---
header: 
  seq: 53
  stamp: 
    secs: 8656
    nsecs: 168000000
  frame_id: "map"
pose: 
  pose: 
    position: 
      x: 1.0480552911758423
      y: 3.5642104148864746
      z: 0.055002063512802124
    orientation: 
      x: 9.765548460782923e-06
      y: 1.5411823726015758e-05
      z: -0.5697408356466908
      w: 0.8218244333992794
  covariance: [2.9706767993596482e-05, -1.3747288348394936e-09, 0.0, 0.0, 0.0, -1.6606082336117492e-07, -1.3747288348394936e-09, 2.969998703040652e-05, 0.0, 0.0, 0.0, 1.8918417238200963e-08, 0.0, 0.0, 1e-08, 0.0, 0.0, 0.0, 0.0, 0.0, 0.0, 3e-08, 0.0, 0.0, 0.0, 0.0, 0.0, 0.0, 3e-08, 0.0, -1.6606082336117492e-07, 1.8918417238200963e-08, 0.0, 0.0, 0.0, 4.358114589341932e-06]
---
header: 
  seq: 54
  stamp: 
    secs: 8657
    nsecs: 168000000
  frame_id: "map"
pose: 
  pose: 
    position: 
      x: 1.0839442014694214
      y: 3.177145481109619
      z: 0.05512944608926773
    orientation: 
      x: 0.0008532872421566948
      y: 0.000940935075680522
      z: -0.6741866302779544
      w: 0.7385599125131381
  covariance: [3.473561925362039e-05, 3.7135395700103455e-09, 0.0, 0.0, 0.0, -5.947124189196816e-07, 3.7135395700103455e-09, 3.463240904126063e-05, 0.0, 0.0, 0.0, 5.2394784264311255e-09, 0.0, 0.0, 1e-08, 0.0, 0.0, 0.0, 0.0, 0.0, 0.0, 3e-08, 0.0, 0.0, 0.0, 0.0, 0.0, 0.0, 3e-08, 0.0, -5.947124189196816e-07, 5.2394784264311255e-09, 0.0, 0.0, 0.0, 5.3597052172544685e-06]
---
header: 
  seq: 55
  stamp: 
    secs: 8658
    nsecs: 168000000
  frame_id: "map"
pose: 
  pose: 
    position: 
      x: 1.1153372526168823
      y: 2.812753677368164
      z: 0.05511876195669174
    orientation: 
      x: 0.0007054048110184669
      y: 0.0009417443443184221
      z: -0.6052838044705535
      w: 0.7960088828749762
  covariance: [3.713212968445328e-05, 1.2010505970470085e-09, 0.0, 0.0, 0.0, -2.683936749644161e-07, 1.2010505970470085e-09, 3.7091526869234636e-05, 0.0, 0.0, 0.0, 5.213077420447241e-08, 0.0, 0.0, 1e-08, 0.0, 0.0, 0.0, 0.0, 0.0, 0.0, 3e-08, 0.0, 0.0, 0.0, 0.0, 0.0, 0.0, 3e-08, 0.0, -2.683936749644161e-07, 5.213077420447241e-08, 0.0, 0.0, 0.0, 5.70700622869178e-06]
---
header: 
  seq: 56
  stamp: 
    secs: 8659
    nsecs: 168000000
  frame_id: "map"
pose: 
  pose: 
    position: 
      x: 1.1135013103485107
      y: 2.819261074066162
      z: 0.05502413585782051
    orientation: 
      x: 3.9947194319953095e-05
      y: 0.0002855738755719998
      z: -0.1971670414884665
      w: 0.9803698668447068
  covariance: [4.3243183687441626e-05, -2.6623352195618118e-09, 0.0, 0.0, 0.0, -2.8917084279660285e-07, -2.6623352195618118e-09, 4.322725989393922e-05, 0.0, 0.0, 0.0, 6.657361183544963e-08, 0.0, 0.0, 1e-08, 0.0, 0.0, 0.0, 0.0, 0.0, 0.0, 3e-08, 0.0, 0.0, 0.0, 0.0, 0.0, 0.0, 3e-08, 0.0, -2.8917084279660285e-07, 6.657361183544963e-08, 0.0, 0.0, 0.0, 6.8743721308559235e-06]
---
header: 
  seq: 57
  stamp: 
    secs: 8660
    nsecs: 168000000
  frame_id: "map"
pose: 
  pose: 
    position: 
      x: 1.3959088325500488
      y: 2.8397586345672607
      z: 0.055112458765506744
    orientation: 
      x: -4.322492708519651e-05
      y: 0.001214494859811625
      z: 0.03237176224424589
      w: 0.9994751551303931
  covariance: [3.5147269233813514e-05, -8.112996370201277e-09, 0.0, 0.0, 0.0, 8.571284118268865e-09, -8.112996370201277e-09, 3.520524086800401e-05, 0.0, 0.0, 0.0, -3.693064509852375e-07, 0.0, 0.0, 1e-08, 0.0, 0.0, 0.0, 0.0, 0.0, 0.0, 3e-08, 0.0, 0.0, 0.0, 0.0, 0.0, 0.0, 3e-08, 0.0, 8.571284118268865e-09, -3.693064509852375e-07, 0.0, 0.0, 0.0, 5.520018735245287e-06]
---
header: 
  seq: 58
  stamp: 
    secs: 8661
    nsecs: 168000000
  frame_id: "map"
pose: 
  pose: 
    position: 
      x: 1.8936675786972046
      y: 2.872488260269165
      z: 0.05500030517578125
    orientation: 
      x: 5.62997078264131e-07
      y: 2.4016120548582065e-06
      z: 0.03247894612128784
      w: 0.9994724193276997
  covariance: [3.9497818255293415e-05, 1.5242259977151393e-10, 0.0, 0.0, 0.0, -1.448312262502454e-07, 1.5242259977151393e-10, 3.959892039572804e-05, 0.0, 0.0, 0.0, -3.080414090802485e-07, 0.0, 0.0, 1e-08, 0.0, 0.0, 0.0, 0.0, 0.0, 0.0, 3e-08, 0.0, 0.0, 0.0, 0.0, 0.0, 0.0, 3e-08, 0.0, -1.448312262502454e-07, -3.080414090802485e-07, 0.0, 0.0, 0.0, 6.3013905167171475e-06]
---
header: 
  seq: 59
  stamp: 
    secs: 8662
    nsecs: 168000000
  frame_id: "map"
pose: 
  pose: 
    position: 
      x: 2.393982410430908
      y: 2.906845808029175
      z: 0.05500005930662155
    orientation: 
      x: -1.2912632206519376e-06
      y: 1.2575035163059145e-06
      z: 0.032668164510416126
      w: 0.9994662469715005
  covariance: [3.412798576133909e-05, -1.9788945129041422e-09, 0.0, 0.0, 0.0, -1.6993819068854768e-07, -1.9788945129041422e-09, 3.421454265021904e-05, 0.0, 0.0, 0.0, -2.4886628901358187e-07, 0.0, 0.0, 1e-08, 0.0, 0.0, 0.0, 0.0, 0.0, 0.0, 3e-08, 0.0, 0.0, 0.0, 0.0, 0.0, 0.0, 3e-08, 0.0, -1.6993819068854768e-07, -2.4886628901358187e-07, 0.0, 0.0, 0.0, 5.230166280764e-06]
---
header: 
  seq: 60
  stamp: 
    secs: 8663
    nsecs: 168000000
  frame_id: "map"
pose: 
  pose: 
    position: 
      x: 2.8917038440704346
      y: 2.9384353160858154
      z: 0.05500016734004021
    orientation: 
      x: -1.7724548110115311e-06
      y: 8.585951164771592e-07
      z: 0.032536141906997475
      w: 0.9994705556975987
  covariance: [4.73177076294154e-05, -1.874000311238086e-08, 0.0, 0.0, 0.0, -3.310326062126506e-07, -1.874000311238086e-08, 4.744205956347139e-05, 0.0, 0.0, 0.0, -2.781829907276974e-08, 0.0, 0.0, 1e-08, 0.0, 0.0, 0.0, 0.0, 0.0, 0.0, 3e-08, 0.0, 0.0, 0.0, 0.0, 0.0, 0.0, 3e-08, 0.0, -3.310326062126506e-07, -2.781829907276974e-08, 0.0, 0.0, 0.0, 7.78555845466567e-06]
---
header: 
  seq: 61
  stamp: 
    secs: 8664
    nsecs: 168000000
  frame_id: "map"
pose: 
  pose: 
    position: 
      x: 2.9561688899993896
      y: 2.9389820098876953
      z: 0.055065590888261795
    orientation: 
      x: 0.00025716600359486613
      y: -0.0006316232476429462
      z: 0.38341378881567617
      w: 0.9235764336031549
  covariance: [3.167205694240102e-05, -2.3250314525815093e-09, 0.0, 0.0, 0.0, -2.952089108042469e-08, -2.3250314525815093e-09, 3.168016203534101e-05, 0.0, 0.0, 0.0, 7.70708584998238e-08, 0.0, 0.0, 1e-08, 0.0, 0.0, 0.0, 0.0, 0.0, 0.0, 3e-08, 0.0, 0.0, 0.0, 0.0, 0.0, 0.0, 3e-08, 0.0, -2.952089108042469e-08, 7.70708584998238e-08, 0.0, 0.0, 0.0, 4.858957605437208e-06]
---
header: 
  seq: 62
  stamp: 
    secs: 8665
    nsecs: 168000000
  frame_id: "map"
pose: 
  pose: 
    position: 
      x: 2.956251382827759
      y: 2.9379825592041016
      z: 0.055003322660923004
    orientation: 
      x: 9.308859543477718e-06
      y: -2.7480023716307372e-05
      z: 0.42169836171473685
      w: 0.9067361777203656
  covariance: [5.838554687917748e-05, -3.7414260437170946e-08, 0.0, 0.0, 0.0, -6.42707385826827e-07, -3.7414260437170946e-08, 5.838255026455068e-05, 0.0, 0.0, 0.0, 6.034227773313611e-07, 0.0, 0.0, 1e-08, 0.0, 0.0, 0.0, 0.0, 0.0, 0.0, 3e-08, 0.0, 0.0, 0.0, 0.0, 0.0, 0.0, 3e-08, 0.0, -6.42707385826827e-07, 6.034227773313611e-07, 0.0, 0.0, 0.0, 1.0494232139785388e-05]
---
header: 
  seq: 63
  stamp: 
    secs: 8666
    nsecs: 168000000
  frame_id: "map"
pose: 
  pose: 
    position: 
      x: 2.962850570678711
      y: 2.9404079914093018
      z: 0.055009759962558746
    orientation: 
      x: 9.596213218833034e-06
      y: 7.116990957431175e-05
      z: 0.017371071806133984
      w: 0.999849114359674
  covariance: [2.9904705688350817e-05, -1.5891258068203165e-08, 0.0, 0.0, 0.0, -2.6614997553682476e-07, -1.5891258068203165e-08, 2.990045438869463e-05, 0.0, 0.0, 0.0, 2.2922173587475584e-07, 0.0, 0.0, 1e-08, 0.0, 0.0, 0.0, 0.0, 0.0, 0.0, 3e-08, 0.0, 0.0, 0.0, 0.0, 0.0, 0.0, 3e-08, 0.0, -2.6614997553682476e-07, 2.2922173587475584e-07, 0.0, 0.0, 0.0, 4.248396532451702e-06]
---
header: 
  seq: 64
  stamp: 
    secs: 8667
    nsecs: 168000000
  frame_id: "map"
pose: 
  pose: 
    position: 
      x: 2.9675822257995605
      y: 2.9389841556549072
      z: 0.055021971464157104
    orientation: 
      x: -0.00011604688835888001
      y: -9.393398425129591e-05
      z: -0.3834252970286396
      w: 0.9235718756821519
  covariance: [3.891109510628991e-05, -9.101968963280744e-09, 0.0, 0.0, 0.0, -2.1665963952404234e-07, -9.101968963280744e-09, 3.8911062643885394e-05, 0.0, 0.0, 0.0, 2.177263388233616e-07, 0.0, 0.0, 1e-08, 0.0, 0.0, 0.0, 0.0, 0.0, 0.0, 3e-08, 0.0, 0.0, 0.0, 0.0, 0.0, 0.0, 3e-08, 0.0, -2.1665963952404234e-07, 2.177263388233616e-07, 0.0, 0.0, 0.0, 6.2095132298329e-06]
---
header: 
  seq: 65
  stamp: 
    secs: 8668
    nsecs: 168000000
  frame_id: "map"
pose: 
  pose: 
    position: 
      x: 2.970771074295044
      y: 2.9346253871917725
      z: 0.05500009283423424
    orientation: 
      x: 4.537607199377384e-06
      y: 5.331495103015295e-06
      z: -0.7241667136842131
      w: 0.6896249270692351
  covariance: [0.00012687957603495754, -1.2900603836482255e-06, 0.0, 0.0, 0.0, -1.0300144266753682e-05, -1.2900603836482255e-06, 0.00012657507261347513, 0.0, 0.0, 0.0, 9.140964008494866e-06, 0.0, 0.0, 1e-08, 0.0, 0.0, 0.0, 0.0, 0.0, 0.0, 3e-08, 0.0, 0.0, 0.0, 0.0, 0.0, 0.0, 3e-08, 0.0, -1.0300144266753682e-05, 9.140964008494866e-06, 0.0, 0.0, 0.0, 7.338832226949892e-05]
---
header: 
  seq: 66
  stamp: 
    secs: 8669
    nsecs: 168000000
  frame_id: "map"
pose: 
  pose: 
    position: 
      x: 2.850189685821533
      y: 2.5666861534118652
      z: 0.055030882358551025
    orientation: 
      x: 0.00024673037259112014
      y: 0.00018535818013110024
      z: -0.8095545208598791
      w: 0.5870447124473759
  covariance: [4.738256308933578e-05, -2.662831799163526e-08, 0.0, 0.0, 0.0, -5.938212933221293e-07, -2.662831799163526e-08, 4.718164688519638e-05, 0.0, 0.0, 0.0, 3.2786455239880833e-07, 0.0, 0.0, 1e-08, 0.0, 0.0, 0.0, 0.0, 0.0, 0.0, 3e-08, 0.0, 0.0, 0.0, 0.0, 0.0, 0.0, 3e-08, 0.0, -5.938212933221293e-07, 3.2786455239880833e-07, 0.0, 0.0, 0.0, 6.626652976843814e-06]
---
header: 
  seq: 67
  stamp: 
    secs: 8670
    nsecs: 168000000
  frame_id: "map"
pose: 
  pose: 
    position: 
      x: 2.869070291519165
      y: 2.4317514896392822
      z: 0.05507758632302284
    orientation: 
      x: -0.0002830464301777611
      y: -0.0003960624150976763
      z: -0.577025518677705
      w: 0.8167259648910979
  covariance: [4.127737682068317e-05, -3.434007092252271e-09, 0.0, 0.0, 0.0, -6.413725967964416e-07, -3.434007092252271e-09, 4.120183124947969e-05, 0.0, 0.0, 0.0, 5.2109534036485195e-08, 0.0, 0.0, 1e-08, 0.0, 0.0, 0.0, 0.0, 0.0, 0.0, 3e-08, 0.0, 0.0, 0.0, 0.0, 0.0, 0.0, 3e-08, 0.0, -6.413725967964416e-07, 5.2109534036485195e-08, 0.0, 0.0, 0.0, 6.382076716464581e-06]
---
header: 
  seq: 68
  stamp: 
    secs: 8671
    nsecs: 168000000
  frame_id: "map"
pose: 
  pose: 
    position: 
      x: 3.0364797115325928
      y: 1.9574685096740723
      z: 0.05578875541687012
    orientation: 
      x: 0.004602657256702952
      y: 0.006516932539211666
      z: -0.5772653549768125
      w: 0.8165176169625933
  covariance: [3.423116318577429e-05, 2.3617848707666088e-08, 0.0, 0.0, 0.0, -4.882396100465233e-07, 2.3617848707666088e-08, 3.41449721989202e-05, 0.0, 0.0, 0.0, 8.337837244466746e-09, 0.0, 0.0, 1e-08, 0.0, 0.0, 0.0, 0.0, 0.0, 0.0, 3e-08, 0.0, 0.0, 0.0, 0.0, 0.0, 0.0, 3e-08, 0.0, -4.882396100465233e-07, 8.337837244466746e-09, 0.0, 0.0, 0.0, 5.27173114240148e-06]
---
header: 
  seq: 69
  stamp: 
    secs: 8672
    nsecs: 168000000
  frame_id: "map"
pose: 
  pose: 
    position: 
      x: 3.154162645339966
      y: 1.6145291328430176
      z: 0.055852681398391724
    orientation: 
      x: -0.0050353243958691785
      y: -0.0058921169977791885
      z: -0.6492434755087707
      w: 0.760541152344791
  covariance: [4.712259587635758e-05, 1.3140039534295967e-08, 0.0, 0.0, 0.0, -2.8014582293068975e-07, 1.3140039534295967e-08, 4.708473904179824e-05, 0.0, 0.0, 0.0, 2.5956362278583e-07, 0.0, 0.0, 1e-08, 0.0, 0.0, 0.0, 0.0, 0.0, 0.0, 3e-08, 0.0, 0.0, 0.0, 0.0, 0.0, 0.0, 3e-08, 0.0, -2.8014582293068975e-07, 2.5956362278583e-07, 0.0, 0.0, 0.0, 7.905618501395261e-06]
---
header: 
  seq: 70
  stamp: 
    secs: 8673
    nsecs: 168000000
  frame_id: "map"
pose: 
  pose: 
    position: 
      x: 3.0473239421844482
      y: 1.4019274711608887
      z: 0.05563516169786453
    orientation: 
      x: -0.004910225277676807
      y: -0.0030379303490517986
      z: -0.8499162377387499
      w: 0.5268863672453395
  covariance: [3.612333473955293e-05, -3.589780988056559e-08, 0.0, 0.0, 0.0, -5.155704300124262e-07, -3.589780988056559e-08, 3.608098028734405e-05, 0.0, 0.0, 0.0, 3.336147177250798e-07, 0.0, 0.0, 1e-08, 0.0, 0.0, 0.0, 0.0, 0.0, 0.0, 3e-08, 0.0, 0.0, 0.0, 0.0, 0.0, 0.0, 3e-08, 0.0, -5.155704300124262e-07, 3.336147177250798e-07, 0.0, 0.0, 0.0, 5.544279756237017e-06]
---
header: 
  seq: 71
  stamp: 
    secs: 8674
    nsecs: 168000000
  frame_id: "map"
pose: 
  pose: 
    position: 
      x: 2.8251843452453613
      y: 0.9504263997077942
      z: 0.055448390543460846
    orientation: 
      x: -0.0034285470146907166
      y: -0.0021203832788054306
      z: -0.8498101267631872
      w: 0.5270738122730998
  covariance: [3.671161284600531e-05, -3.93679786285408e-08, 0.0, 0.0, 0.0, -3.763214900690237e-07, -3.93679786285408e-08, 3.665538415738767e-05, 0.0, 0.0, 0.0, 2.422903903077416e-07, 0.0, 0.0, 1e-08, 0.0, 0.0, 0.0, 0.0, 0.0, 0.0, 3e-08, 0.0, 0.0, 0.0, 0.0, 0.0, 0.0, 3e-08, 0.0, -3.763214900690237e-07, 2.422903903077416e-07, 0.0, 0.0, 0.0, 5.768581495092057e-06]
---
header: 
  seq: 72
  stamp: 
    secs: 8675
    nsecs: 168000000
  frame_id: "map"
pose: 
  pose: 
    position: 
      x: 2.800586462020874
      y: 0.904780387878418
      z: 0.05613305792212486
    orientation: 
      x: -0.006103925363799477
      y: -0.008221564558699003
      z: -0.5951664292593509
      w: 0.8035372132631311
  covariance: [3.2826850393728784e-05, -4.303013836063102e-09, 0.0, 0.0, 0.0, -1.249395254847403e-07, -4.303013836063102e-09, 3.2823986499389434e-05, 0.0, 0.0, 0.0, 1.1570220185402923e-07, 0.0, 0.0, 1e-08, 0.0, 0.0, 0.0, 0.0, 0.0, 0.0, 3e-08, 0.0, 0.0, 0.0, 0.0, 0.0, 0.0, 3e-08, 0.0, -1.249395254847403e-07, 1.1570220185402923e-07, 0.0, 0.0, 0.0, 5.112399519488806e-06]
---
header: 
  seq: 73
  stamp: 
    secs: 8676
    nsecs: 168000000
  frame_id: "map"
pose: 
  pose: 
    position: 
      x: 2.9827091693878174
      y: 0.7455695271492004
      z: 0.05502455309033394
    orientation: 
      x: 8.335161555699457e-05
      y: 0.0002289567256420033
      z: -0.35968854291142566
      w: 0.9330724114471581
  covariance: [4.110614325700314e-05, 2.178543537148552e-08, 0.0, 0.0, 0.0, -4.5010653940048003e-07, 2.178543537148552e-08, 4.108951956219791e-05, 0.0, 0.0, 0.0, -1.258448916136905e-07, 0.0, 0.0, 1e-08, 0.0, 0.0, 0.0, 0.0, 0.0, 0.0, 3e-08, 0.0, 0.0, 0.0, 0.0, 0.0, 0.0, 3e-08, 0.0, -4.5010653940048003e-07, -1.258448916136905e-07, 0.0, 0.0, 0.0, 6.684487392824573e-06]
---
header: 
  seq: 74
  stamp: 
    secs: 8677
    nsecs: 168000000
  frame_id: "map"
pose: 
  pose: 
    position: 
      x: 3.3530490398406982
      y: 0.4114138185977936
      z: 0.05500076338648796
    orientation: 
      x: -2.2377279152371937e-06
      y: 4.884968032682777e-06
      z: -0.3596735261426094
      w: 0.9330782245070152
  covariance: [3.320076919208554e-05, 4.438281634051259e-08, 0.0, 0.0, 0.0, -3.5456548752256244e-07, 4.438281634051259e-08, 3.3199504371395925e-05, 0.0, 0.0, 0.0, -1.3407630306616791e-07, 0.0, 0.0, 1e-08, 0.0, 0.0, 0.0, 0.0, 0.0, 0.0, 3e-08, 0.0, 0.0, 0.0, 0.0, 0.0, 0.0, 3e-08, 0.0, -3.5456548752256244e-07, -1.3407630306616791e-07, 0.0, 0.0, 0.0, 5.117627880029136e-06]
---
header: 
  seq: 75
  stamp: 
    secs: 8678
    nsecs: 168000000
  frame_id: "map"
pose: 
  pose: 
    position: 
      x: 3.722245693206787
      y: 0.07579902559518814
      z: 0.05499473214149475
    orientation: 
      x: 9.304306040608775e-06
      y: 3.2005843824546454e-05
      z: -0.35938237601894163
      w: 0.9331903903071521
  covariance: [4.987507642005924e-05, 6.142045532375682e-08, 0.0, 0.0, 0.0, -2.1364816684516254e-07, 6.142045532375682e-08, 4.991955990484305e-05, 0.0, 0.0, 0.0, 3.4293543671932816e-07, 0.0, 0.0, 1e-08, 0.0, 0.0, 0.0, 0.0, 0.0, 0.0, 3e-08, 0.0, 0.0, 0.0, 0.0, 0.0, 0.0, 3e-08, 0.0, -2.1364816684516254e-07, 3.4293543671932816e-07, 0.0, 0.0, 0.0, 8.557842434919298e-06]
---
header: 
  seq: 76
  stamp: 
    secs: 8679
    nsecs: 168000000
  frame_id: "map"
pose: 
  pose: 
    position: 
      x: 3.724313735961914
      y: 0.07486665993928909
      z: 0.05507094785571098
    orientation: 
      x: -3.297656557599799e-05
      y: 0.0006585880856006203
      z: 0.069995246523309
      w: 0.9975471066463786
  covariance: [0.0001367079611126287, -8.676220399794304e-07, 0.0, 0.0, 0.0, -6.993359028202221e-06, -8.676220399794304e-07, 0.000138124969169653, 0.0, 0.0, 0.0, 1.399307498079083e-05, 0.0, 0.0, 1e-08, 0.0, 0.0, 0.0, 0.0, 0.0, 0.0, 3e-08, 0.0, 0.0, 0.0, 0.0, 0.0, 0.0, 3e-08, 0.0, -6.993359028202221e-06, 1.399307498079083e-05, 0.0, 0.0, 0.0, 0.0001065472109843217]
---
header: 
  seq: 77
  stamp: 
    secs: 8680
    nsecs: 168000000
  frame_id: "map"
pose: 
  pose: 
    position: 
      x: 3.734549045562744
      y: 0.07975566387176514
      z: 0.0550040528178215
    orientation: 
      x: -1.821478607895466e-05
      y: -6.160681106310887e-05
      z: -0.009776536995222226
      w: 0.9999522108341491
  covariance: [0.00020590557514562588, -2.6097905568093904e-06, 0.0, 0.0, 0.0, -1.0149053091034404e-05, -2.6097905568093904e-06, 0.0002099234648783786, 0.0, 0.0, 0.0, 2.033008402760907e-05, 0.0, 0.0, 1e-08, 0.0, 0.0, 0.0, 0.0, 0.0, 0.0, 3e-08, 0.0, 0.0, 0.0, 0.0, 0.0, 0.0, 3e-08, 0.0, -1.0149053091034404e-05, 2.033008402760907e-05, 0.0, 0.0, 0.0, 0.00011099207551849693]
---
header: 
  seq: 78
  stamp: 
    secs: 8681
    nsecs: 168000000
  frame_id: "map"
pose: 
  pose: 
    position: 
      x: 3.746354341506958
      y: 0.0783015713095665
      z: 0.055006131529808044
    orientation: 
      x: -2.7760598285935864e-05
      y: -3.222437770320312e-05
      z: -0.41039191881415993
      w: 0.9119092570635996
  covariance: [6.339072923918925e-05, -1.2603236176704303e-07, 0.0, 0.0, 0.0, -2.4767614591859934e-07, -1.2603236176704303e-07, 6.359827040585352e-05, 0.0, 0.0, 0.0, 4.771314248995803e-07, 0.0, 0.0, 1e-08, 0.0, 0.0, 0.0, 0.0, 0.0, 0.0, 3e-08, 0.0, 0.0, 0.0, 0.0, 0.0, 0.0, 3e-08, 0.0, -2.4767614591859934e-07, 4.771314248995803e-07, 0.0, 0.0, 0.0, 8.643799170508197e-06]
---
header: 
  seq: 79
  stamp: 
    secs: 8682
    nsecs: 168000000
  frame_id: "map"
pose: 
  pose: 
    position: 
      x: 3.7475616931915283
      y: 0.07137445360422134
      z: 0.0550011470913887
    orientation: 
      x: 4.603866005608289e-06
      y: 8.87240479720543e-06
      z: -0.7482012862862112
      w: 0.6634717669915882
  covariance: [5.5234420866430424e-05, -6.233155385776645e-08, 0.0, 0.0, 0.0, -7.156590844593785e-07, -6.233155385776645e-08, 5.5241517635341724e-05, 0.0, 0.0, 0.0, 6.01139242490228e-07, 0.0, 0.0, 1e-08, 0.0, 0.0, 0.0, 0.0, 0.0, 0.0, 3e-08, 0.0, 0.0, 0.0, 0.0, 0.0, 0.0, 3e-08, 0.0, -7.156590844593785e-07, 6.01139242490228e-07, 0.0, 0.0, 0.0, 8.88845955521597e-06]
---
header: 
  seq: 80
  stamp: 
    secs: 8683
    nsecs: 168000000
  frame_id: "map"
pose: 
  pose: 
    position: 
      x: 3.63736629486084
      y: -0.40047401189804077
      z: 0.05522171035408974
    orientation: 
      x: -0.0016074092549977425
      y: -0.0012922661707951938
      z: -0.7784705130055808
      w: 0.6276777957658756
  covariance: [3.4517065363031694e-05, -2.7601659601375712e-08, 0.0, 0.0, 0.0, -4.4162273367576767e-07, -2.7601659601375712e-08, 3.442546588153698e-05, 0.0, 0.0, 0.0, 2.3347532337592672e-07, 0.0, 0.0, 1e-08, 0.0, 0.0, 0.0, 0.0, 0.0, 0.0, 3e-08, 0.0, 0.0, 0.0, 0.0, 0.0, 0.0, 3e-08, 0.0, -4.4162273367576767e-07, 2.3347532337592672e-07, 0.0, 0.0, 0.0, 5.221188333412822e-06]
---
header: 
  seq: 81
  stamp: 
    secs: 8684
    nsecs: 168000000
  frame_id: "map"
pose: 
  pose: 
    position: 
      x: 3.532550573348999
      y: -0.8918716907501221
      z: 0.055031921714544296
    orientation: 
      x: -0.0002899139182653161
      y: -0.00023341332576626273
      z: -0.7787799650173208
      w: 0.6272971258260582
  covariance: [3.0421559765150016e-05, -2.176440225066211e-08, 0.0, 0.0, 0.0, -3.530191655785643e-07, -2.176440225066211e-08, 3.0357602060721946e-05, 0.0, 0.0, 0.0, 1.9972370098137237e-07, 0.0, 0.0, 1e-08, 0.0, 0.0, 0.0, 0.0, 0.0, 0.0, 3e-08, 0.0, 0.0, 0.0, 0.0, 0.0, 0.0, 3e-08, 0.0, -3.530191655785643e-07, 1.9972370098137237e-07, 0.0, 0.0, 0.0, 4.736569197605181e-06]
---
header: 
  seq: 82
  stamp: 
    secs: 8685
    nsecs: 168000000
  frame_id: "map"
pose: 
  pose: 
    position: 
      x: 3.4259443283081055
      y: -1.377989411354065
      z: 0.05500020459294319
    orientation: 
      x: 4.816891785242248e-07
      y: 1.951711841974841e-06
      z: -0.7785533657282881
      w: 0.6275784235274142
  covariance: [3.321453688547147e-05, -2.355064576415081e-08, 0.0, 0.0, 0.0, -3.4686311354819966e-07, -2.355064576415081e-08, 3.3148141006275654e-05, 0.0, 0.0, 0.0, 2.2731356900124066e-07, 0.0, 0.0, 1e-08, 0.0, 0.0, 0.0, 0.0, 0.0, 0.0, 3e-08, 0.0, 0.0, 0.0, 0.0, 0.0, 0.0, 3e-08, 0.0, -3.4686311354819966e-07, 2.2731356900124066e-07, 0.0, 0.0, 0.0, 5.246361297649447e-06]
---
header: 
  seq: 83
  stamp: 
    secs: 8686
    nsecs: 168000000
  frame_id: "map"
pose: 
  pose: 
    position: 
      x: 3.3187143802642822
      y: -1.866689682006836
      z: 0.054991092532873154
    orientation: 
      x: 5.19501295251184e-06
      y: 2.611936331557649e-06
      z: -0.7785897469886159
      w: 0.6275332135077222
  covariance: [2.7544774470488587e-05, -1.7991345022019508e-08, 0.0, 0.0, 0.0, -2.8464312524733616e-07, -1.7991345022019508e-08, 2.7492036947475482e-05, 0.0, 0.0, 0.0, 1.7525785371012862e-07, 0.0, 0.0, 1e-08, 0.0, 0.0, 0.0, 0.0, 0.0, 0.0, 3e-08, 0.0, 0.0, 0.0, 0.0, 0.0, 0.0, 3e-08, 0.0, -2.8464312524733616e-07, 1.7525785371012862e-07, 0.0, 0.0, 0.0, 4.2868593475261375e-06]
---
header: 
  seq: 84
  stamp: 
    secs: 8687
    nsecs: 168000000
  frame_id: "map"
pose: 
  pose: 
    position: 
      x: 3.2761480808258057
      y: -2.0672380924224854
      z: 0.055001627653837204
    orientation: 
      x: 6.207913115667948e-06
      y: 1.2266001799991268e-05
      z: -0.6124757079263129
      w: 0.7904894173509135
