header: 
  seq: 0
  stamp: 
    secs: 8603
    nsecs: 168000000
  frame_id: "map"
pose: 
  pose: 
    position: 
      x: 0.8738217353820801
      y: -1.3112831115722656
      z: 0.05499089136719704
    orientation: 
      x: 6.535170594165826e-06
      y: 2.6556340823651176e-06
      z: -0.8811367300299676
      w: 0.4728615946654186
  covariance: [0.0001, 0.0, 0.0, 0.0, 0.0, 0.0, 0.0, 0.0001, 0.0, 0.0, 0.0, 0.0, 0.0, 0.0, 1e-08, 0.0, 0.0, 0.0, 0.0, 0.0, 0.0, 3e-08, 0.0, 0.0, 0.0, 0.0, 0.0, 0.0, 3e-08, 0.0, 0.0, 0.0, 0.0, 0.0, 0.0, 0.01]
---
header: 
  seq: 1
  stamp: 
    secs: 8604
    nsecs: 168000000
  frame_id: "map"
pose: 
  pose: 
    position: 
      x: 0.8738521337509155
      y: -1.3113096952438354
      z: 0.054991383105516434
    orientation: 
      x: -3.9028058147789584e-07
      y: -2.857859887532825e-06
      z: -0.8811203259233031
      w: 0.4728921464124839
  covariance: [0.0002, 0.0, 0.0, 0.0, 0.0, 0.0, 0.0, 0.0002, 0.0, 0.0, 0.0, 0.0, 0.0, 0.0, 1e-08, 0.0, 0.0, 0.0, 0.0, 0.0, 0.0, 3e-08, 0.0, 0.0, 0.0, 0.0, 0.0, 0.0, 3e-08, 0.0, 0.0, 0.0, 0.0, 0.0, 0.0, 0.02]
---
header: 
  seq: 2
  stamp: 
    secs: 8605
    nsecs: 168000000
  frame_id: "map"
pose: 
  pose: 
    position: 
      x: 0.8738831281661987
      y: -1.3113386631011963
      z: 0.05500011146068573
    orientation: 
      x: 2.6241916223652373e-06
      y: 8.199651256380423e-06
      z: -0.8811039215112324
      w: 0.47292273328492257
  covariance: [0.00030000000000000003, 0.0, 0.0, 0.0, 0.0, 0.0, 0.0, 0.00030000000000000003, 0.0, 0.0, 0.0, 0.0, 0.0, 0.0, 1e-08, 0.0, 0.0, 0.0, 0.0, 0.0, 0.0, 3e-08, 0.0, 0.0, 0.0, 0.0, 0.0, 0.0, 3e-08, 0.0, 0.0, 0.0, 0.0, 0.0, 0.0, 0.03]
---
header: 
  seq: 3
  stamp: 
    secs: 8606
    nsecs: 168000000
  frame_id: "map"
pose: 
  pose: 
    position: 
      x: 0.8739131093025208
      y: -1.3113659620285034
      z: 0.05499109998345375
    orientation: 
      x: 6.330251015962604e-06
      y: 1.970482086200003e-06
      z: -0.8810875506182122
      w: 0.47295320183042083
  covariance: [0.0004, 0.0, 0.0, 0.0, 0.0, 0.0, 0.0, 0.0004, 0.0, 0.0, 0.0, 0.0, 0.0, 0.0, 1e-08, 0.0, 0.0, 0.0, 0.0, 0.0, 0.0, 3e-08, 0.0, 0.0, 0.0, 0.0, 0.0, 0.0, 3e-08, 0.0, 0.0, 0.0, 0.0, 0.0, 0.0, 0.04]
---
header: 
  seq: 4
  stamp: 
    secs: 8607
    nsecs: 168000000
  frame_id: "map"
pose: 
  pose: 
    position: 
      x: 0.8739433884620667
      y: -1.311392903327942
      z: 0.05499999225139618
    orientation: 
      x: -5.953446860138148e-07
      y: 1.332601303742941e-06
      z: -0.881071213246111
      w: 0.472983585863003
  covariance: [0.0005, 0.0, 0.0, 0.0, 0.0, 0.0, 0.0, 0.0005, 0.0, 0.0, 0.0, 0.0, 0.0, 0.0, 1e-08, 0.0, 0.0, 0.0, 0.0, 0.0, 0.0, 3e-08, 0.0, 0.0, 0.0, 0.0, 0.0, 0.0, 3e-08, 0.0, 0.0, 0.0, 0.0, 0.0, 0.0, 0.05]
---
header: 
  seq: 5
  stamp: 
    secs: 8608
    nsecs: 168000000
  frame_id: "map"
pose: 
  pose: 
    position: 
      x: 0.8739733099937439
      y: -1.3114205598831177
      z: 0.05499996617436409
    orientation: 
      x: 2.060057322746334e-06
      y: 3.2754963135919937e-06
      z: -0.8810554844339564
      w: 0.47301296778955537
  covariance: [0.0006000000000000001, 0.0, 0.0, 0.0, 0.0, 0.0, 0.0, 0.0006000000000000001, 0.0, 0.0, 0.0, 0.0, 0.0, 0.0, 1e-08, 0.0, 0.0, 0.0, 0.0, 0.0, 0.0, 3e-08, 0.0, 0.0, 0.0, 0.0, 0.0, 0.0, 3e-08, 0.0, 0.0, 0.0, 0.0, 0.0, 0.0, 0.060000000000000005]
---
header: 
  seq: 6
  stamp: 
    secs: 8609
    nsecs: 168000000
  frame_id: "map"
pose: 
  pose: 
    position: 
      x: 0.874002993106842
      y: -1.3114473819732666
      z: 0.05499047040939331
    orientation: 
      x: 1.29275063044853e-06
      y: 9.355727209635391e-07
      z: -0.8810390788145764
      w: 0.47304345833192496
  covariance: [0.0007000000000000001, 0.0, 0.0, 0.0, 0.0, 0.0, 0.0, 0.0007000000000000001, 0.0, 0.0, 0.0, 0.0, 0.0, 0.0, 1e-08, 0.0, 0.0, 0.0, 0.0, 0.0, 0.0, 3e-08, 0.0, 0.0, 0.0, 0.0, 0.0, 0.0, 3e-08, 0.0, 0.0, 0.0, 0.0, 0.0, 0.0, 0.07]
---
header: 
  seq: 7
  stamp: 
    secs: 8610
    nsecs: 168000000
  frame_id: "map"
pose: 
  pose: 
    position: 
      x: 0.8740338087081909
      y: -1.311475157737732
      z: 0.05500023812055588
    orientation: 
      x: -1.546652166094875e-06
      y: -7.213103741022373e-07
      z: -0.8810232817748503
      w: 0.47307301434217985
  covariance: [0.0008000000000000001, 0.0, 0.0, 0.0, 0.0, 0.0, 0.0, 0.0008000000000000001, 0.0, 0.0, 0.0, 0.0, 0.0, 0.0, 1e-08, 0.0, 0.0, 0.0, 0.0, 0.0, 0.0, 3e-08, 0.0, 0.0, 0.0, 0.0, 0.0, 0.0, 3e-08, 0.0, 0.0, 0.0, 0.0, 0.0, 0.0, 0.08]
---
header: 
  seq: 8
  stamp: 
    secs: 8611
    nsecs: 168000000
  frame_id: "map"
pose: 
  pose: 
    position: 
      x: 0.8738240599632263
      y: -1.311838984489441
      z: 0.05499378591775894
    orientation: 
      x: -2.3290908414451367e-05
      y: -1.123322539255732e-05
      z: -0.8810097508946295
      w: 0.473098208530026
  covariance: [0.0009000000000000002, 0.0, 0.0, 0.0, 0.0, 0.0, 0.0, 0.0009000000000000002, 0.0, 0.0, 0.0, 0.0, 0.0, 0.0, 1e-08, 0.0, 0.0, 0.0, 0.0, 0.0, 0.0, 3e-08, 0.0, 0.0, 0.0, 0.0, 0.0, 0.0, 3e-08, 0.0, 0.0, 0.0, 0.0, 0.0, 0.0, 0.09]
---
header: 
  seq: 9
  stamp: 
    secs: 8612
    nsecs: 168000000
  frame_id: "map"
pose: 
  pose: 
    position: 
      x: 0.6022828817367554
      y: -1.7203612327575684
      z: 0.05498400703072548
    orientation: 
      x: 6.535072103506413e-06
      y: 2.656030551799349e-06
      z: -0.8811637876829281
      w: 0.472811156152257
  covariance: [0.0010000000000000002, 0.0, 0.0, 0.0, 0.0, 0.0, 0.0, 0.0010000000000000002, 0.0, 0.0, 0.0, 0.0, 0.0, 0.0, 1e-08, 0.0, 0.0, 0.0, 0.0, 0.0, 0.0, 3e-08, 0.0, 0.0, 0.0, 0.0, 0.0, 0.0, 3e-08, 0.0, 0.0, 0.0, 0.0, 0.0, 0.0, 0.09999999999999999]
---
header: 
  seq: 10
  stamp: 
    secs: 8613
    nsecs: 168000000
  frame_id: "map"
pose: 
  pose: 
    position: 
      x: 0.40110647678375244
      y: -2.0259759426116943
      z: 0.0549788698554039
    orientation: 
      x: 6.244783593137598e-06
      y: 3.2802111654843945e-06
      z: -0.9230497601528981
      w: 0.3846805218712134
  covariance: [0.0011000000000000003, 0.0, 0.0, 0.0, 0.0, 0.0, 0.0, 0.0011000000000000003, 0.0, 0.0, 0.0, 0.0, 0.0, 0.0, 1e-08, 0.0, 0.0, 0.0, 0.0, 0.0, 0.0, 3e-08, 0.0, 0.0, 0.0, 0.0, 0.0, 0.0, 3e-08, 0.0, 0.0, 0.0, 0.0, 0.0, 0.0, 0.10999999999999999]
---
header: 
  seq: 11
  stamp: 
    secs: 8614
    nsecs: 168000000
  frame_id: "map"
pose: 
  pose: 
    position: 
      x: 0.39616742730140686
      y: -2.0289642810821533
      z: 0.05497879534959793
    orientation: 
      x: -4.115082648404883e-06
      y: -5.729480118900147e-06
      z: 0.9975908883833491
      w: 0.06937211125452333
  covariance: [0.0012000000000000003, 0.0, 0.0, 0.0, 0.0, 0.0, 0.0, 0.0012000000000000003, 0.0, 0.0, 0.0, 0.0, 0.0, 0.0, 1e-08, 0.0, 0.0, 0.0, 0.0, 0.0, 0.0, 3e-08, 0.0, 0.0, 0.0, 0.0, 0.0, 0.0, 3e-08, 0.0, 0.0, 0.0, 0.0, 0.0, 0.0, 0.11999999999999998]
---
header: 
  seq: 12
  stamp: 
    secs: 8615
    nsecs: 168000000
  frame_id: "map"
pose: 
  pose: 
    position: 
      x: 0.04039965569972992
      y: -1.871245265007019
      z: 0.054977305233478546
    orientation: 
      x: -3.3078822073756715e-06
      y: -6.23054011692243e-06
      z: 0.9792187081704162
      w: 0.20280732052901343
  covariance: [0.0013000000000000004, 0.0, 0.0, 0.0, 0.0, 0.0, 0.0, 0.0013000000000000004, 0.0, 0.0, 0.0, 0.0, 0.0, 0.0, 1e-08, 0.0, 0.0, 0.0, 0.0, 0.0, 0.0, 3e-08, 0.0, 0.0, 0.0, 0.0, 0.0, 0.0, 3e-08, 0.0, 0.0, 0.0, 0.0, 0.0, 0.0, 0.12999999999999998]
---
header: 
  seq: 13
  stamp: 
    secs: 8616
    nsecs: 168000000
  frame_id: "map"
pose: 
  pose: 
    position: 
      x: -0.41927915811538696
      y: -1.673815369606018
      z: 0.05497530847787857
    orientation: 
      x: -3.3085751321621377e-06
      y: -6.230104397144942e-06
      z: 0.9792446382739541
      w: 0.20268185772415404
  covariance: [0.0014000000000000004, 0.0, 0.0, 0.0, 0.0, 0.0, 0.0, 0.0014000000000000004, 0.0, 0.0, 0.0, 0.0, 0.0, 0.0, 1e-08, 0.0, 0.0, 0.0, 0.0, 0.0, 0.0, 3e-08, 0.0, 0.0, 0.0, 0.0, 0.0, 0.0, 3e-08, 0.0, 0.0, 0.0, 0.0, 0.0, 0.0, 0.13999999999999999]
---
header: 
  seq: 14
  stamp: 
    secs: 8617
    nsecs: 168000000
  frame_id: "map"
pose: 
  pose: 
    position: 
      x: -0.8791093230247498
      y: -1.4743319749832153
      z: 0.054973334074020386
    orientation: 
      x: -3.307130294449521e-06
      y: -6.230869836198233e-06
      z: 0.9791976166290998
      w: 0.20290885410253787
  covariance: [0.0015000000000000005, 0.0, 0.0, 0.0, 0.0, 0.0, 0.0, 0.0015000000000000005, 0.0, 0.0, 0.0, 0.0, 0.0, 0.0, 1e-08, 0.0, 0.0, 0.0, 0.0, 0.0, 0.0, 3e-08, 0.0, 0.0, 0.0, 0.0, 0.0, 0.0, 3e-08, 0.0, 0.0, 0.0, 0.0, 0.0, 0.0, 0.15]
---
header: 
  seq: 15
  stamp: 
    secs: 8618
    nsecs: 168000000
  frame_id: "map"
pose: 
  pose: 
    position: 
      x: -1.338082194328308
      y: -1.2767442464828491
      z: 0.054971348494291306
    orientation: 
      x: -3.3066130189584604e-06
      y: -6.2311462556229065e-06
      z: 0.9791808161152838
      w: 0.20299016034347087
  covariance: [0.0016000000000000005, 0.0, 0.0, 0.0, 0.0, 0.0, 0.0, 0.0016000000000000005, 0.0, 0.0, 0.0, 0.0, 0.0, 0.0, 1e-08, 0.0, 0.0, 0.0, 0.0, 0.0, 0.0, 3e-08, 0.0, 0.0, 0.0, 0.0, 0.0, 0.0, 3e-08, 0.0, 0.0, 0.0, 0.0, 0.0, 0.0, 0.16]
---
header: 
  seq: 16
  stamp: 
    secs: 8619
    nsecs: 168000000
  frame_id: "map"
pose: 
  pose: 
    position: 
      x: -1.7196707725524902
      y: -1.1137405633926392
      z: 0.054969679564237595
    orientation: 
      x: -2.9945880684410357e-06
      y: -6.387118025337199e-06
      z: 0.9679350963342724
      w: 0.2512005909311639
  covariance: [0.0017000000000000006, 0.0, 0.0, 0.0, 0.0, 0.0, 0.0, 0.0017000000000000006, 0.0, 0.0, 0.0, 0.0, 0.0, 0.0, 1e-08, 0.0, 0.0, 0.0, 0.0, 0.0, 0.0, 3e-08, 0.0, 0.0, 0.0, 0.0, 0.0, 0.0, 3e-08, 0.0, 0.0, 0.0, 0.0, 0.0, 0.0, 0.17]
---
header: 
  seq: 17
  stamp: 
    secs: 8620
    nsecs: 168000000
  frame_id: "map"
pose: 
  pose: 
    position: 
      x: -1.7261327505111694
      y: -1.1060187816619873
      z: 0.054969705641269684
    orientation: 
      x: 1.9937812267449638e-07
      y: -7.051300526505806e-06
      z: 0.7514408740502678
      w: 0.6598004166513025
  covariance: [0.0018000000000000006, 0.0, 0.0, 0.0, 0.0, 0.0, 0.0, 0.0018000000000000006, 0.0, 0.0, 0.0, 0.0, 0.0, 0.0, 1e-08, 0.0, 0.0, 0.0, 0.0, 0.0, 0.0, 3e-08, 0.0, 0.0, 0.0, 0.0, 0.0, 0.0, 3e-08, 0.0, 0.0, 0.0, 0.0, 0.0, 0.0, 0.18000000000000002]
---
header: 
  seq: 18
  stamp: 
    secs: 8621
    nsecs: 168000000
  frame_id: "map"
pose: 
  pose: 
    position: 
      x: -1.7414560317993164
      y: -0.6200414299964905
      z: 0.054974839091300964
    orientation: 
      x: 5.378016345935425e-07
      y: -7.033660025431297e-06
      z: 0.7189619930761731
      w: 0.695049364683271
  covariance: [0.000574586059520707, 5.788575742743839e-05, 0.0, 0.0, 0.0, -4.104387236985155e-05, 5.788575742743839e-05, 0.0006239289755877624, 0.0, 0.0, 0.0, -5.137262649222552e-05, 0.0, 0.0, 1e-08, 0.0, 0.0, 0.0, 0.0, 0.0, 0.0, 3e-08, 0.0, 0.0, 0.0, 0.0, 0.0, 0.0, 3e-08, 0.0, -4.104387236985155e-05, -5.137262649222552e-05, 0.0, 0.0, 0.0, 5.247729853453589e-05]
---
header: 
  seq: 19
  stamp: 
    secs: 8622
    nsecs: 168000000
  frame_id: "map"
pose: 
  pose: 
    position: 
      x: -1.7602049112319946
      y: -0.11780727654695511
      z: 0.05498012900352478
    orientation: 
      x: 5.389358480965217e-07
      y: -7.033524745690463e-06
      z: 0.7189118918161013
      w: 0.6951012022447898
  covariance: [0.0005999790763642427, 6.652117614518199e-05, 0.0, 0.0, 0.0, -5.4614974817377335e-05, 6.652117614518199e-05, 0.0006035465768790875, 0.0, 0.0, 0.0, -4.338033531628802e-05, 0.0, 0.0, 1e-08, 0.0, 0.0, 0.0, 0.0, 0.0, 0.0, 3e-08, 0.0, 0.0, 0.0, 0.0, 0.0, 0.0, 3e-08, 0.0, -5.4614974817377335e-05, -4.338033531628802e-05, 0.0, 0.0, 0.0, 5.126988954510289e-05]
---
header: 
  seq: 20
  stamp: 
    secs: 8623
    nsecs: 168000000
  frame_id: "map"
pose: 
  pose: 
    position: 
      x: -1.7760971784591675
      y: 0.37988191843032837
      z: 0.054985396564006805
    orientation: 
      x: 5.383408667315326e-07
      y: -7.0335701121495325e-06
      z: 0.7190152615240363
      w: 0.6949943071585026
  covariance: [0.0006296747005922453, 6.426550704964548e-05, 0.0, 0.0, 0.0, -6.244384561071174e-05, 6.426550704964548e-05, 0.0005877846357602223, 0.0, 0.0, 0.0, -3.413520880971212e-05, 0.0, 0.0, 1e-08, 0.0, 0.0, 0.0, 0.0, 0.0, 0.0, 3e-08, 0.0, 0.0, 0.0, 0.0, 0.0, 0.0, 3e-08, 0.0, -6.244384561071174e-05, -3.413520880971212e-05, 0.0, 0.0, 0.0, 5.067686132125615e-05]
---
header: 
  seq: 21
  stamp: 
    secs: 8624
    nsecs: 368000000
  frame_id: "map"
pose: 
  pose: 
    position: 
      x: -1.797897458076477
      y: 0.9799240827560425
      z: 0.054991714656353
    orientation: 
      x: 5.392619902422346e-07
      y: -7.0335002674135044e-06
      z: 0.7189840893492899
      w: 0.6950265532162049
  covariance: [0.0006661121914577234, 6.395818432581385e-05, 0.0, 0.0, 0.0, -7.361089082691231e-05, 6.395818432581385e-05, 0.0005707236945620002, 0.0, 0.0, 0.0, -2.765216614880273e-05, 0.0, 0.0, 1e-08, 0.0, 0.0, 0.0, 0.0, 0.0, 0.0, 3e-08, 0.0, 0.0, 0.0, 0.0, 0.0, 0.0, 3e-08, 0.0, -7.361089082691231e-05, -2.765216614880273e-05, 0.0, 0.0, 0.0, 4.932315909453e-05]
---
header: 
  seq: 22
  stamp: 
    secs: 8625
    nsecs: 368000000
  frame_id: "map"
pose: 
  pose: 
    position: 
      x: -1.8149431943893433
      y: 1.4790253639221191
      z: 0.05499699339270592
    orientation: 
      x: 5.402874464278676e-07
      y: -7.033421899893402e-06
      z: 0.7189615894725192
      w: 0.6950498792190068
  covariance: [0.000752341397478826, 8.02345088856272e-05, 0.0, 0.0, 0.0, -8.908258237186408e-05, 8.02345088856272e-05, 0.0005944487971688144, 0.0, 0.0, 0.0, -2.8416567575999956e-05, 0.0, 0.0, 1e-08, 0.0, 0.0, 0.0, 0.0, 0.0, 0.0, 3e-08, 0.0, 0.0, 0.0, 0.0, 0.0, 0.0, 3e-08, 0.0, -8.908258237186408e-05, -2.8416567575999956e-05, 0.0, 0.0, 0.0, 5.1172569199518286e-05]
---
header: 
  seq: 23
  stamp: 
    secs: 8626
    nsecs: 368000000
  frame_id: "map"
pose: 
  pose: 
    position: 
      x: -1.8306949138641357
      y: 1.9813543558120728
      z: 0.055002305656671524
    orientation: 
      x: 5.421839014080567e-07
      y: -7.0332755610816386e-06
      z: 0.7188299380825374
      w: 0.6951860891580091
  covariance: [0.0008548842158003868, 9.922948671033525e-05, 0.0, 0.0, 0.0, -0.000105326984280964, 9.922948671033525e-05, 0.0006191727792425435, 0.0, 0.0, 0.0, -2.9747020787834844e-05, 0.0, 0.0, 1e-08, 0.0, 0.0, 0.0, 0.0, 0.0, 0.0, 3e-08, 0.0, 0.0, 0.0, 0.0, 0.0, 0.0, 3e-08, 0.0, -0.000105326984280964, -2.9747020787834844e-05, 0.0, 0.0, 0.0, 5.310415921774856e-05]
---
header: 
  seq: 24
  stamp: 
    secs: 8627
    nsecs: 368000000
  frame_id: "map"
pose: 
  pose: 
    position: 
      x: -1.8486199378967285
      y: 2.4792587757110596
      z: 0.05500755459070206
    orientation: 
      x: 5.399133166021685e-07
      y: -7.033450952723989e-06
      z: 0.7191187733057575
      w: 0.6948871811884848
  covariance: [0.0009707244380429338, 0.00011969501857698633, 0.0, 0.0, 0.0, -0.00012390277763147203, 0.00011969501857698633, 0.0006374438429735144, 0.0, 0.0, 0.0, -3.13453893264631e-05, 0.0, 0.0, 1e-08, 0.0, 0.0, 0.0, 0.0, 0.0, 0.0, 3e-08, 0.0, 0.0, 0.0, 0.0, 0.0, 0.0, 3e-08, 0.0, -0.00012390277763147203, -3.13453893264631e-05, 0.0, 0.0, 0.0, 5.446164503651683e-05]
---
header: 
  seq: 25
  stamp: 
    secs: 8628
    nsecs: 368000000
  frame_id: "map"
pose: 
  pose: 
    position: 
      x: -1.8656224012374878
      y: 2.979853391647339
      z: 0.05501284822821617
    orientation: 
      x: 5.418395545044919e-07
      y: -7.033303002112431e-06
      z: 0.718982044481797
      w: 0.6950286543036857
  covariance: [0.0011069659839508348, 0.00014145052465536648, 0.0, 0.0, 0.0, -0.00014245156608269502, 0.00014145052465536648, 0.0006579446514468239, 0.0, 0.0, 0.0, -3.291095287499235e-05, 0.0, 0.0, 1e-08, 0.0, 0.0, 0.0, 0.0, 0.0, 0.0, 3e-08, 0.0, 0.0, 0.0, 0.0, 0.0, 0.0, 3e-08, 0.0, -0.00014245156608269502, -3.291095287499235e-05, 0.0, 0.0, 0.0, 5.6057266362858896e-05]
---
header: 
  seq: 26
  stamp: 
    secs: 8629
    nsecs: 368000000
  frame_id: "map"
pose: 
  pose: 
    position: 
      x: -1.8759666681289673
      y: 3.2903547286987305
      z: 0.05501612275838852
    orientation: 
      x: 5.401228060200661e-07
      y: -7.03328698912043e-06
      z: 0.7191547678038562
      w: 0.6948500391866598
  covariance: [0.0012101293650809482, 0.00015496238159650076, 0.0, 0.0, 0.0, -0.0001545478893381734, 0.00015496238159650076, 0.0006790037856337808, 0.0, 0.0, 0.0, -3.374763787234425e-05, 0.0, 0.0, 1e-08, 0.0, 0.0, 0.0, 0.0, 0.0, 0.0, 3e-08, 0.0, 0.0, 0.0, 0.0, 0.0, 0.0, 3e-08, 0.0, -0.0001545478893381734, -3.374763787234425e-05, 0.0, 0.0, 0.0, 5.793754303211552e-05]
---
header: 
  seq: 27
  stamp: 
    secs: 8630
    nsecs: 368000000
  frame_id: "map"
pose: 
  pose: 
    position: 
      x: -1.8770833015441895
      y: 3.288766622543335
      z: 0.05501609668135643
    orientation: 
      x: 1.3171682633947817e-07
      y: -7.052959223025307e-06
      z: 0.758307248055742
      w: 0.6518973462086622
  covariance: [0.0012440606729500414, 0.00015589571929124603, 0.0, 0.0, 0.0, -0.00015063526257080777, 0.00015589571929124603, 0.0007185902720608224, 0.0, 0.0, 0.0, -3.389894989302357e-05, 0.0, 0.0, 1e-08, 0.0, 0.0, 0.0, 0.0, 0.0, 0.0, 3e-08, 0.0, 0.0, 0.0, 0.0, 0.0, 0.0, 3e-08, 0.0, -0.00015063526257080777, -3.389894989302357e-05, 0.0, 0.0, 0.0, 6.18542656683479e-05]
---
header: 
  seq: 28
  stamp: 
    secs: 8631
    nsecs: 368000000
  frame_id: "map"
pose: 
  pose: 
    position: 
      x: -1.8760427236557007
      y: 3.2830259799957275
      z: 0.05501604825258255
    orientation: 
      x: -2.7823874617030716e-06
      y: -6.4822387498175175e-06
      z: 0.9594009644415046
      w: 0.28204567737071023
  covariance: [0.0012622456311439745, 0.0001556847786007988, 0.0, 0.0, 0.0, -0.00014748059462213158, 0.0001556847786007988, 0.0007405925854443483, 0.0, 0.0, 0.0, -3.379613333903632e-05, 0.0, 0.0, 1e-08, 0.0, 0.0, 0.0, 0.0, 0.0, 0.0, 3e-08, 0.0, 0.0, 0.0, 0.0, 0.0, 0.0, 3e-08, 0.0, -0.00014748059462213158, -3.379613333903632e-05, 0.0, 0.0, 0.0, 6.40784027350042e-05]
---
header: 
  seq: 29
  stamp: 
    secs: 8632
    nsecs: 368000000
  frame_id: "map"
pose: 
  pose: 
    position: 
      x: -2.107170343399048
      y: 3.2939131259918213
      z: 0.05501409247517586
    orientation: 
      x: -4.3280445224490675e-06
      y: -5.570442059155591e-06
      z: 0.9995259711177003
      w: 0.030787801852581106
  covariance: [0.001296048689396659, 0.00018951284252324057, 0.0, 0.0, 0.0, -0.00014635931315171337, 0.00018951284252324057, 0.0007903944398340102, 0.0, 0.0, 0.0, -4.748542687942287e-05, 0.0, 0.0, 1e-08, 0.0, 0.0, 0.0, 0.0, 0.0, 0.0, 3e-08, 0.0, 0.0, 0.0, 0.0, 0.0, 0.0, 3e-08, 0.0, -0.00014635931315171337, -4.748542687942287e-05, 0.0, 0.0, 0.0, 6.721194807863256e-05]
---
header: 
  seq: 30
  stamp: 
    secs: 8633
    nsecs: 368000000
  frame_id: "map"
pose: 
  pose: 
    position: 
      x: -2.60552716255188
      y: 3.3255603313446045
      z: 0.05500996112823486
    orientation: 
      x: -4.326759555469107e-06
      y: -5.571364422999196e-06
      z: 0.9995231683668833
      w: 0.030877526020762696
  covariance: [0.0013171135855228253, 0.0002633470668253906, 0.0, 0.0, 0.0, -0.00014723280116324072, 0.0002633470668253906, 0.0008626542592038237, 0.0, 0.0, 0.0, -7.751385606304816e-05, 0.0, 0.0, 1e-08, 0.0, 0.0, 0.0, 0.0, 0.0, 0.0, 3e-08, 0.0, 0.0, 0.0, 0.0, 0.0, 0.0, 3e-08, 0.0, -0.00014723280116324072, -7.751385606304816e-05, 0.0, 0.0, 0.0, 6.830694406546233e-05]
---
header: 
  seq: 31
  stamp: 
    secs: 8634
    nsecs: 368000000
  frame_id: "map"
pose: 
  pose: 
    position: 
      x: -3.1040563583374023
      y: 3.3561813831329346
      z: 0.055005814880132675
    orientation: 
      x: -4.327310607573409e-06
      y: -5.570935470630299e-06
      z: 0.999528296798582
      w: 0.0307110685584894
  covariance: [0.0013361330905382334, 0.0003387131547496235, 0.0, 0.0, 0.0, -0.0001486072182522498, 0.0003387131547496235, 0.0009594177234276803, 0.0, 0.0, 0.0, -0.00010685415168128799, 0.0, 0.0, 1e-08, 0.0, 0.0, 0.0, 0.0, 0.0, 0.0, 3e-08, 0.0, 0.0, 0.0, 0.0, 0.0, 0.0, 3e-08, 0.0, -0.0001486072182522498, -0.00010685415168128799, 0.0, 0.0, 0.0, 6.910598033632888e-05]
---
header: 
  seq: 32
  stamp: 
    secs: 8635
    nsecs: 368000000
  frame_id: "map"
pose: 
  pose: 
    position: 
      x: -3.603177547454834
      y: 3.385272741317749
      z: 0.055001650005578995
    orientation: 
      x: -4.326722625687754e-06
      y: -5.571392935891965e-06
      z: 0.99952907202434
      w: 0.030685572247006805
  covariance: [0.00135990635945913, 0.00041622430818457663, 0.0, 0.0, 0.0, -0.0001502923985386237, 0.00041622430818457663, 0.0010874713562839008, 0.0, 0.0, 0.0, -0.0001359733903166498, 0.0, 0.0, 1e-08, 0.0, 0.0, 0.0, 0.0, 0.0, 0.0, 3e-08, 0.0, 0.0, 0.0, 0.0, 0.0, 0.0, 3e-08, 0.0, -0.0001502923985386237, -0.0001359733903166498, 0.0, 0.0, 0.0, 7.033787605465452e-05]
---
header: 
  seq: 33
  stamp: 
    secs: 8636
    nsecs: 368000000
  frame_id: "map"
pose: 
  pose: 
    position: 
      x: -4.064204692840576
      y: 3.4127533435821533
      z: 0.05499780550599098
    orientation: 
      x: -4.328110382111817e-06
      y: -5.570260452640268e-06
      z: 0.9995376591002131
      w: 0.0304054397318585
  covariance: [0.0013891489283556907, 0.0004899221886455936, 0.0, 0.0, 0.0, -0.0001521156341775958, 0.0004899221886455936, 0.001237628999698829, 0.0, 0.0, 0.0, -0.0001636389775905848, 0.0, 0.0, 1e-08, 0.0, 0.0, 0.0, 0.0, 0.0, 0.0, 3e-08, 0.0, 0.0, 0.0, 0.0, 0.0, 0.0, 3e-08, 0.0, -0.0001521156341775958, -0.0001636389775905848, 0.0, 0.0, 0.0, 7.218266073718172e-05]
---
header: 
  seq: 34
  stamp: 
    secs: 8637
    nsecs: 368000000
  frame_id: "map"
pose: 
  pose: 
    position: 
      x: -4.059833526611328
      y: 3.4128904342651367
      z: 0.05499786138534546
    orientation: 
      x: 4.611320842840858e-06
      y: 5.338249583735059e-06
      z: -0.9997677831439433
      w: 0.021551204470739705
  covariance: [0.0013966325664223982, 0.0004894645419194856, 0.0, 0.0, 0.0, -0.00015214103287642, 0.0004894645419194856, 0.0012323164478081506, 0.0, 0.0, 0.0, -0.000157862189773842, 0.0, 0.0, 1e-08, 0.0, 0.0, 0.0, 0.0, 0.0, 0.0, 3e-08, 0.0, 0.0, 0.0, 0.0, 0.0, 0.0, 3e-08, 0.0, -0.00015214103287642, -0.000157862189773842, 0.0, 0.0, 0.0, 7.275408451941133e-05]
---
header: 
  seq: 35
  stamp: 
    secs: 8638
    nsecs: 368000000
  frame_id: "map"
pose: 
  pose: 
    position: 
      x: -4.057401180267334
      y: 3.4132261276245117
      z: 0.054997894912958145
    orientation: 
      x: 6.395209093117644e-06
      y: 2.976915134522562e-06
      z: -0.9029630377186624
      w: 0.42971823293808353
  covariance: [0.0014283426157061093, 0.0004893591808215301, 0.0, 0.0, 0.0, -0.00015218811061449842, 0.0004893591808215301, 0.0012569317467432833, 0.0, 0.0, 0.0, -0.00015410944743497878, 0.0, 0.0, 1e-08, 0.0, 0.0, 0.0, 0.0, 0.0, 0.0, 3e-08, 0.0, 0.0, 0.0, 0.0, 0.0, 0.0, 3e-08, 0.0, -0.00015218811061449842, -0.00015410944743497878, 0.0, 0.0, 0.0, 7.589663345124916e-05]
---
header: 
  seq: 36
  stamp: 
    secs: 8639
    nsecs: 368000000
  frame_id: "map"
pose: 
  pose: 
    position: 
      x: -4.057121276855469
      y: 3.4156436920166016
      z: 0.054997920989990234
    orientation: 
      x: 7.047694999966188e-06
      y: 3.0177341438713956e-07
      z: -0.6697007507296889
      w: 0.7426310769695933
  covariance: [0.001447665511439512, 0.000489758889935641, 0.0, 0.0, 0.0, -0.00015234521670529357, 0.000489758889935641, 0.0012725525006272505, 0.0, 0.0, 0.0, -0.0001521257820377492, 0.0, 0.0, 1e-08, 0.0, 0.0, 0.0, 0.0, 0.0, 0.0, 3e-08, 0.0, 0.0, 0.0, 0.0, 0.0, 0.0, 3e-08, 0.0, -0.00015234521670529357, -0.0001521257820377492, 0.0, 0.0, 0.0, 7.778206622320065e-05]
---
header: 
  seq: 37
  stamp: 
    secs: 8640
    nsecs: 368000000
  frame_id: "map"
pose: 
  pose: 
    position: 
      x: -4.046218395233154
      y: 3.378490686416626
      z: 0.05499761551618576
    orientation: 
      x: 7.05271948110036e-06
      y: -1.450853627241726e-07
      z: -0.6213468361829251
      w: 0.7835357035990077
  covariance: [0.0014567777168916474, 0.0004825301123264794, 0.0, 0.0, 0.0, -0.00014951799992472115, 0.0004825301123264794, 0.0012884048549343613, 0.0, 0.0, 0.0, -0.00015017417636132633, 0.0, 0.0, 1e-08, 0.0, 0.0, 0.0, 0.0, 0.0, 0.0, 3e-08, 0.0, 0.0, 0.0, 0.0, 0.0, 0.0, 3e-08, 0.0, -0.00014951799992472115, -0.00015017417636132633, 0.0, 0.0, 0.0, 7.985034148649971e-05]
---
header: 
  seq: 38
  stamp: 
    secs: 8641
    nsecs: 368000000
  frame_id: "map"
pose: 
  pose: 
    position: 
      x: -3.933145523071289
      y: 2.8907601833343506
      z: 0.05499332770705223
    orientation: 
      x: 7.052654858054537e-06
      y: -1.4578116085194325e-07
      z: -0.6214603304069427
      w: 0.783445648923961
  covariance: [0.0013219672446397228, 0.000398621928020103, 0.0, 0.0, 0.0, -0.00011363132474040356, 0.000398621928020103, 0.0012465684753461342, 0.0, 0.0, 0.0, -0.0001390500887487724, 0.0, 0.0, 1e-08, 0.0, 0.0, 0.0, 0.0, 0.0, 0.0, 3e-08, 0.0, 0.0, 0.0, 0.0, 0.0, 0.0, 3e-08, 0.0, -0.00011363132474040356, -0.0001390500887487724, 0.0, 0.0, 0.0, 7.930269179336911e-05]
---
header: 
  seq: 39
  stamp: 
    secs: 8642
    nsecs: 368000000
  frame_id: "map"
pose: 
  pose: 
    position: 
      x: -3.862920045852661
      y: 2.5865700244903564
      z: 0.054990652948617935
    orientation: 
      x: 7.052633070732373e-06
      y: -1.4919871881256553e-07
      z: -0.6211598713494014
      w: 0.7836839336858987
  covariance: [0.0012817279034114215, 0.00034944738738756454, 0.0, 0.0, 0.0, -9.16898021060683e-05, 0.00034944738738756454, 0.0012515505873955052, 0.0, 0.0, 0.0, -0.00013399615779023286, 0.0, 0.0, 1e-08, 0.0, 0.0, 0.0, 0.0, 0.0, 0.0, 3e-08, 0.0, 0.0, 0.0, 0.0, 0.0, 0.0, 3e-08, 0.0, -9.16898021060683e-05, -0.00013399615779023286, 0.0, 0.0, 0.0, 8.162110640351374e-05]
---
header: 
  seq: 40
  stamp: 
    secs: 8643
    nsecs: 368000000
  frame_id: "map"
pose: 
  pose: 
    position: 
      x: -3.864809989929199
      y: 2.589107036590576
      z: 0.054990656673908234
    orientation: 
      x: 6.808901474278294e-06
      y: -1.8437363428314174e-06
      z: -0.41421881791956877
      w: 0.9101773370092764
  covariance: [0.0013142305991864119, 0.00034922794987995315, 0.0, 0.0, 0.0, -9.380839710194012e-05, 0.00034922794987995315, 0.0012861901638484866, 0.0, 0.0, 0.0, -0.00013486270737485313, 0.0, 0.0, 1e-08, 0.0, 0.0, 0.0, 0.0, 0.0, 0.0, 3e-08, 0.0, 0.0, 0.0, 0.0, 0.0, 0.0, 3e-08, 0.0, -9.380839710194012e-05, -0.00013486270737485313, 0.0, 0.0, 0.0, 8.495273846053385e-05]
---
header: 
  seq: 41
  stamp: 
    secs: 8644
    nsecs: 368000000
  frame_id: "map"
pose: 
  pose: 
    position: 
      x: -3.8694188594818115
      y: 2.594510555267334
      z: 0.054990679025650024
    orientation: 
      x: 5.391333630032902e-06
      y: -4.549123920451851e-06
      z: 0.009221035922687042
      w: 0.9999574860833974
  covariance: [0.001339721429612188, 0.00034990147049434044, 0.0, 0.0, 0.0, -9.537415013838233e-05, 0.00034990147049434044, 0.0013129969018269025, 0.0, 0.0, 0.0, -0.0001357663153219476, 0.0, 0.0, 1e-08, 0.0, 0.0, 0.0, 0.0, 0.0, 0.0, 3e-08, 0.0, 0.0, 0.0, 0.0, 0.0, 0.0, 3e-08, 0.0, -9.537415013838233e-05, -0.0001357663153219476, 0.0, 0.0, 0.0, 8.746872051213613e-05]
---
header: 
  seq: 42
  stamp: 
    secs: 8645
    nsecs: 368000000
  frame_id: "map"
pose: 
  pose: 
    position: 
      x: -3.437751531600952
      y: 2.68326473236084
      z: 0.05499552562832832
    orientation: 
      x: 4.965388898526547e-06
      y: -5.010607895091965e-06
      z: 0.09799723645448481
      w: 0.9951866806966979
  covariance: [0.0013862297393701284, 0.0003165620924793473, 0.0, 0.0, 0.0, -0.00010389240798687366, 0.0003165620924793473, 0.0012400060282732725, 0.0, 0.0, 0.0, -0.00010026325431545612, 0.0, 0.0, 1e-08, 0.0, 0.0, 0.0, 0.0, 0.0, 0.0, 3e-08, 0.0, 0.0, 0.0, 0.0, 0.0, 0.0, 3e-08, 0.0, -0.00010389240798687366, -0.00010026325431545612, 0.0, 0.0, 0.0, 9.036262991738334e-05]
---
header: 
  seq: 43
  stamp: 
    secs: 8646
    nsecs: 368000000
  frame_id: "map"
pose: 
  pose: 
    position: 
      x: -2.9467689990997314
      y: 2.7811131477355957
      z: 0.05500102415680885
    orientation: 
      x: 4.964045985512373e-06
      y: -5.011910705738281e-06
      z: 0.09809411758581586
      w: 0.9951771427021173
  covariance: [0.001415211696518863, 0.0002702628414405182, 0.0, 0.0, 0.0, -0.00011305125312211864, 0.0002702628414405182, 0.0011658370658604248, 0.0, 0.0, 0.0, -6.039139433177817e-05, 0.0, 0.0, 1e-08, 0.0, 0.0, 0.0, 0.0, 0.0, 0.0, 3e-08, 0.0, 0.0, 0.0, 0.0, 0.0, 0.0, 3e-08, 0.0, -0.00011305125312211864, -6.039139433177817e-05, 0.0, 0.0, 0.0, 9.102617388679391e-05]
---
header: 
  seq: 44
  stamp: 
    secs: 8647
    nsecs: 368000000
  frame_id: "map"
pose: 
  pose: 
    position: 
      x: -2.4548580646514893
      y: 2.8785438537597656
      z: 0.055006515234708786
    orientation: 
      x: 4.962392114196331e-06
      y: -5.01355129043111e-06
      z: 0.09824243559051318
      w: 0.9951625136065856
  covariance: [0.0014425544858556768, 0.00021605223211562292, 0.0, 0.0, 0.0, -0.00012176085753681392, 0.00021605223211562292, 0.0011193168428370545, 0.0, 0.0, 0.0, -2.369659683970535e-05, 0.0, 0.0, 1e-08, 0.0, 0.0, 0.0, 0.0, 0.0, 0.0, 3e-08, 0.0, 0.0, 0.0, 0.0, 0.0, 0.0, 3e-08, 0.0, -0.00012176085753681392, -2.369659683970535e-05, 0.0, 0.0, 0.0, 9.119228879675759e-05]
---
header: 
  seq: 45
  stamp: 
    secs: 8648
    nsecs: 368000000
  frame_id: "map"
pose: 
  pose: 
    position: 
      x: -1.9622395038604736
      y: 2.975191593170166
      z: 0.05501200258731842
    orientation: 
      x: 4.962107694044559e-06
      y: -5.013831853350435e-06
      z: 0.09809983360998704
      w: 0.9951765737136801
  covariance: [0.0014537441113247184, 0.0001542849479477776, 0.0, 0.0, 0.0, -0.00013081678161664214, 0.0001542849479477776, 0.0010805679427535163, 0.0, 0.0, 0.0, 8.324657260601562e-06, 0.0, 0.0, 1e-08, 0.0, 0.0, 0.0, 0.0, 0.0, 0.0, 3e-08, 0.0, 0.0, 0.0, 0.0, 0.0, 0.0, 3e-08, 0.0, -0.00013081678161664214, 8.324657260601562e-06, 0.0, 0.0, 0.0, 8.965097701159458e-05]
---
header: 
  seq: 46
  stamp: 
    secs: 8649
    nsecs: 368000000
  frame_id: "map"
pose: 
  pose: 
    position: 
      x: -1.4718605279922485
      y: 3.0734732151031494
      z: 0.05501749739050865
    orientation: 
      x: 4.961879258670889e-06
      y: -5.014059076296654e-06
      z: 0.09802646288804948
      w: 0.9951838058319744
  covariance: [0.001470991340432139, 8.69271897933176e-05, 0.0, 0.0, 0.0, -0.00013894593722439184, 8.69271897933176e-05, 0.0010695658869635408, 0.0, 0.0, 0.0, 3.8288804565740125e-05, 0.0, 0.0, 1e-08, 0.0, 0.0, 0.0, 0.0, 0.0, 0.0, 3e-08, 0.0, 0.0, 0.0, 0.0, 0.0, 0.0, 3e-08, 0.0, -0.00013894593722439184, 3.8288804565740125e-05, 0.0, 0.0, 0.0, 8.837114897457001e-05]
---
header: 
  seq: 47
  stamp: 
    secs: 8650
    nsecs: 368000000
  frame_id: "map"
pose: 
  pose: 
    position: 
      x: -0.9826138615608215
      y: 3.171294689178467
      z: 0.05502298101782799
    orientation: 
      x: 4.9605435293432584e-06
      y: -5.0153806206397825e-06
      z: 0.09804869647115336
      w: 0.9951816197313657
  covariance: [0.001489021190231909, 1.573716051162042e-05, 0.0, 0.0, 0.0, -0.00014571281918743475, 1.573716051162042e-05, 0.0010794306469919957, 0.0, 0.0, 0.0, 6.676065448889094e-05, 0.0, 0.0, 1e-08, 0.0, 0.0, 0.0, 0.0, 0.0, 0.0, 3e-08, 0.0, 0.0, 0.0, 0.0, 0.0, 0.0, 3e-08, 0.0, -0.00014571281918743475, 6.676065448889094e-05, 0.0, 0.0, 0.0, 8.692891687075348e-05]
---
header: 
  seq: 48
  stamp: 
    secs: 8651
    nsecs: 368000000
  frame_id: "map"
pose: 
  pose: 
    position: 
      x: -0.4932684004306793
      y: 3.2675583362579346
      z: 0.055028438568115234
    orientation: 
      x: 4.960221837535329e-06
      y: -5.015701273582801e-06
      z: 0.09794260766846655
      w: 0.9951920710456705
  covariance: [0.0015141200995905087, -6.069751843039763e-05, 0.0, 0.0, 0.0, -0.00015216672954916798, -6.069751843039763e-05, 0.0011171711597139703, 0.0, 0.0, 0.0, 9.334526441785576e-05, 0.0, 0.0, 1e-08, 0.0, 0.0, 0.0, 0.0, 0.0, 0.0, 3e-08, 0.0, 0.0, 0.0, 0.0, 0.0, 0.0, 3e-08, 0.0, -0.00015216672954916798, 9.334526441785576e-05, 0.0, 0.0, 0.0, 8.616593544861114e-05]
---
header: 
  seq: 49
  stamp: 
    secs: 8652
    nsecs: 368000000
  frame_id: "map"
pose: 
  pose: 
    position: 
      x: -0.003024575300514698
      y: 3.3647661209106445
      z: 0.05503391474485397
    orientation: 
      x: 4.96067539482888e-06
      y: -5.015254310574087e-06
      z: 0.0977100233900821
      w: 0.995214934784671
  covariance: [0.0015543068002999733, -0.00014209605137515473, 0.0, 0.0, 0.0, -0.00015840459000775794, -0.00014209605137515473, 0.0011930518389359872, 0.0, 0.0, 0.0, 0.00012012503703152468, 0.0, 0.0, 1e-08, 0.0, 0.0, 0.0, 0.0, 0.0, 0.0, 3e-08, 0.0, 0.0, 0.0, 0.0, 0.0, 0.0, 3e-08, 0.0, -0.00015840459000775794, 0.00012012503703152468, 0.0, 0.0, 0.0, 8.685933959036436e-05]
---
header: 
  seq: 50
  stamp: 
    secs: 8653
    nsecs: 368000000
  frame_id: "map"
pose: 
  pose: 
    position: 
      x: 0.4867546856403351
      y: 3.461045265197754
      z: 0.05503937602043152
    orientation: 
      x: 4.960803138672818e-06
      y: -5.015129988061449e-06
      z: 0.09756933451111166
      w: 0.9952287246444287
  covariance: [0.0015983888909540315, -0.00022840928567514579, 0.0, 0.0, 0.0, -0.00016455877785641308, -0.00022840928567514579, 0.00129852900726128, 0.0, 0.0, 0.0, 0.0001480937251101271, 0.0, 0.0, 1e-08, 0.0, 0.0, 0.0, 0.0, 0.0, 0.0, 3e-08, 0.0, 0.0, 0.0, 0.0, 0.0, 0.0, 3e-08, 0.0, -0.00016455877785641308, 0.0001480937251101271, 0.0, 0.0, 0.0, 8.7918752362738e-05]
---
header: 
  seq: 51
  stamp: 
    secs: 8654
    nsecs: 368000000
  frame_id: "map"
pose: 
  pose: 
    position: 
      x: 0.9776509404182434
      y: 3.5578112602233887
      z: 0.05504486337304115
    orientation: 
      x: 4.960522547212059e-06
      y: -5.015404542844458e-06
      z: 0.097565592097373
      w: 0.9952290989593481
  covariance: [0.0016390274393053776, -0.00031926930541990764, 0.0, 0.0, 0.0, -0.00017049203574499063, -0.00031926930541990764, 0.0014210084642051037, 0.0, 0.0, 0.0, 0.000175375404762655, 0.0, 0.0, 1e-08, 0.0, 0.0, 0.0, 0.0, 0.0, 0.0, 3e-08, 0.0, 0.0, 0.0, 0.0, 0.0, 0.0, 3e-08, 0.0, -0.00017049203574499063, 0.000175375404762655, 0.0, 0.0, 0.0, 8.852004665287907e-05]
---
header: 
  seq: 52
  stamp: 
    secs: 8655
    nsecs: 368000000
  frame_id: "map"
pose: 
  pose: 
    position: 
      x: 1.0470118522644043
      y: 3.566030502319336
      z: 0.05504557117819786
    orientation: 
      x: 6.401677632474621e-06
      y: -2.9630781579254156e-06
      z: -0.2568855615844564
      w: 0.9664418348886055
  covariance: [0.0016392197919506298, -0.0003254377671346619, 0.0, 0.0, 0.0, -0.00016886086604650394, -0.0003254377671346619, 0.001398391962882104, 0.0, 0.0, 0.0, 0.00016679262609620114, 0.0, 0.0, 1e-08, 0.0, 0.0, 0.0, 0.0, 0.0, 0.0, 3e-08, 0.0, 0.0, 0.0, 0.0, 0.0, 0.0, 3e-08, 0.0, -0.00016886086604650394, 0.00016679262609620114, 0.0, 0.0, 0.0, 8.846424714332737e-05]
---
header: 
  seq: 53
  stamp: 
    secs: 8656
    nsecs: 368000000
  frame_id: "map"
pose: 
  pose: 
    position: 
      x: 1.049072504043579
      y: 3.5618860721588135
      z: 0.055045560002326965
    orientation: 
      x: 7.054150588906766e-06
      y: -5.912377641922545e-13
      z: -0.6390747076352032
      w: 0.7691446291624103
  covariance: [0.0016529422358853238, -0.0003207748024932638, 0.0, 0.0, 0.0, -0.00016692404196349517, -0.0003207748024932638, 0.0013866298045868647, 0.0, 0.0, 0.0, 0.00015700692462886732, 0.0, 0.0, 1e-08, 0.0, 0.0, 0.0, 0.0, 0.0, 0.0, 3e-08, 0.0, 0.0, 0.0, 0.0, 0.0, 0.0, 3e-08, 0.0, -0.00016692404196349517, 0.00015700692462886732, 0.0, 0.0, 0.0, 9.040846240924389e-05]
---
header: 
  seq: 54
  stamp: 
    secs: 8657
    nsecs: 368000000
  frame_id: "map"
pose: 
  pose: 
    position: 
      x: 1.0929453372955322
      y: 3.0773212909698486
      z: 0.05504070222377777
    orientation: 
      x: 7.046573422333321e-06
      y: 3.268456070218479e-07
      z: -0.6740893699356979
      w: 0.7386498515024683
  covariance: [0.0015313306957653635, -0.00025332042497235203, 0.0, 0.0, 0.0, -0.00012601898245245724, -0.00025332042497235203, 0.0013914106128817933, 0.0, 0.0, 0.0, 0.00015048005669248267, 0.0, 0.0, 1e-08, 0.0, 0.0, 0.0, 0.0, 0.0, 0.0, 3e-08, 0.0, 0.0, 0.0, 0.0, 0.0, 0.0, 3e-08, 0.0, -0.00012601898245245724, 0.00015048005669248267, 0.0, 0.0, 0.0, 9.281080934395123e-05]
---
header: 
  seq: 55
  stamp: 
    secs: 8658
    nsecs: 368000000
  frame_id: "map"
pose: 
  pose: 
    position: 
      x: 1.1165108680725098
      y: 2.81195330619812
      z: 0.05503803864121437
    orientation: 
      x: 6.993443925750257e-06
      y: -9.235876018853118e-07
      z: -0.5329281664180785
      w: 0.8461604830841722
  covariance: [0.0014734825628525492, -0.00022295918410447486, 0.0, 0.0, 0.0, -0.00010685204926052818, -0.00022295918410447486, 0.001373465220704916, 0.0, 0.0, 0.0, 0.0001415404354014767, 0.0, 0.0, 1e-08, 0.0, 0.0, 0.0, 0.0, 0.0, 0.0, 3e-08, 0.0, 0.0, 0.0, 0.0, 0.0, 0.0, 3e-08, 0.0, -0.00010685204926052818, 0.0001415404354014767, 0.0, 0.0, 0.0, 9.374642667336277e-05]
---
header: 
  seq: 56
  stamp: 
    secs: 8659
    nsecs: 368000000
  frame_id: "map"
pose: 
  pose: 
    position: 
      x: 1.1137796640396118
      y: 2.8179540634155273
      z: 0.05503808706998825
    orientation: 
      x: 5.8707207172387e-06
      y: -3.910983449073857e-06
      z: -0.10544701099367709
      w: 0.9944249254373531
  covariance: [0.00149810596141257, -0.0002233892955456844, 0.0, 0.0, 0.0, -0.00010936215896114572, -0.0002233892955456844, 0.0014013476136065179, 0.0, 0.0, 0.0, 0.00014173238102646504, 0.0, 0.0, 1e-08, 0.0, 0.0, 0.0, 0.0, 0.0, 0.0, 3e-08, 0.0, 0.0, 0.0, 0.0, 0.0, 0.0, 3e-08, 0.0, -0.00010936215896114572, 0.00014173238102646504, 0.0, 0.0, 0.0, 9.607116438459614e-05]
---
header: 
  seq: 57
  stamp: 
    secs: 8660
    nsecs: 368000000
  frame_id: "map"
pose: 
  pose: 
    position: 
      x: 1.4970555305480957
      y: 2.844996690750122
      z: 0.0550418384373188
    orientation: 
      x: 5.277574332516759e-06
      y: -4.6805904519792166e-06
      z: 0.03228726492411485
      w: 0.9994786363725844
  covariance: [0.0015348013084914133, -0.0002705712694064437, 0.0, 0.0, 0.0, -0.00011332616171110287, -0.0002705712694064437, 0.0015589939219797925, 0.0, 0.0, 0.0, 0.0001774883416182891, 0.0, 0.0, 1e-08, 0.0, 0.0, 0.0, 0.0, 0.0, 0.0, 3e-08, 0.0, 0.0, 0.0, 0.0, 0.0, 0.0, 3e-08, 0.0, -0.00011332616171110287, 0.0001774883416182891, 0.0, 0.0, 0.0, 9.91010603338434e-05]
---
header: 
  seq: 58
  stamp: 
    secs: 8661
    nsecs: 368000000
  frame_id: "map"
pose: 
  pose: 
    position: 
      x: 1.993591070175171
      y: 2.877713918685913
      z: 0.05504667013883591
    orientation: 
      x: 5.276422348030669e-06
      y: -4.681930388527321e-06
      z: 0.032571297596949655
      w: 0.9994694076997268
  covariance: [0.0015704846252891187, -0.0003349328954675228, 0.0, 0.0, 0.0, -0.00011742146802170593, -0.0003349328954675228, 0.0017888708132041996, 0.0, 0.0, 0.0, 0.0002238223960120381, 0.0, 0.0, 1e-08, 0.0, 0.0, 0.0, 0.0, 0.0, 0.0, 3e-08, 0.0, 0.0, 0.0, 0.0, 0.0, 0.0, 3e-08, 0.0, -0.00011742146802170593, 0.0002238223960120381, 0.0, 0.0, 0.0, 0.00010181150326625666]
---
header: 
  seq: 59
  stamp: 
    secs: 8662
    nsecs: 368000000
  frame_id: "map"
pose: 
  pose: 
    position: 
      x: 2.493640661239624
      y: 2.9116859436035156
      z: 0.055051546543836594
    orientation: 
      x: 5.275490083759272e-06
      y: -4.6829806282718115e-06
      z: 0.03272994299297918
      w: 0.9994642342384115
  covariance: [0.0015956102090410255, -0.00040355483393993824, 0.0, 0.0, 0.0, -0.00012142403972583663, -0.00040355483393993824, 0.0020507369618393504, 0.0, 0.0, 0.0, 0.0002689406604096839, 0.0, 0.0, 1e-08, 0.0, 0.0, 0.0, 0.0, 0.0, 0.0, 3e-08, 0.0, 0.0, 0.0, 0.0, 0.0, 0.0, 3e-08, 0.0, -0.00012142403972583663, 0.0002689406604096839, 0.0, 0.0, 0.0, 0.00010328504544074252]
---
header: 
  seq: 60
  stamp: 
    secs: 8663
    nsecs: 368000000
  frame_id: "map"
pose: 
  pose: 
    position: 
      x: 2.959672212600708
      y: 2.93849778175354
      z: 0.055056046694517136
    orientation: 
      x: 5.246192138910312e-06
      y: -4.716132561073977e-06
      z: 0.0389682099453562
      w: 0.9992404526776224
  covariance: [0.001625203575409616, -0.00046857864926648344, 0.0, 0.0, 0.0, -0.00012426045497172962, -0.00046857864926648344, 0.002337575584467444, 0.0, 0.0, 0.0, 0.00031061849624345407, 0.0, 0.0, 1e-08, 0.0, 0.0, 0.0, 0.0, 0.0, 0.0, 3e-08, 0.0, 0.0, 0.0, 0.0, 0.0, 0.0, 3e-08, 0.0, -0.00012426045497172962, 0.00031061849624345407, 0.0, 0.0, 0.0, 0.00010533135475606092]
---
header: 
  seq: 61
  stamp: 
    secs: 8664
    nsecs: 368000000
  frame_id: "map"
pose: 
  pose: 
    position: 
      x: 2.9540743827819824
      y: 2.9360592365264893
      z: 0.05505596846342087
    orientation: 
      x: 2.6730256499658207e-06
      y: -6.5280369076004135e-06
      z: 0.4696105307950765
      w: 0.8828736849487051
  covariance: [0.001655080677578194, -0.0004667357146359586, 0.0, 0.0, 0.0, -0.00012388893464008438, -0.0004667357146359586, 0.002357780933970693, 0.0, 0.0, 0.0, 0.00030500406207217997, 0.0, 0.0, 1e-08, 0.0, 0.0, 0.0, 0.0, 0.0, 0.0, 3e-08, 0.0, 0.0, 0.0, 0.0, 0.0, 0.0, 3e-08, 0.0, -0.00012388893464008438, 0.00030500406207217997, 0.0, 0.0, 0.0, 0.00010828690122374758]
---
header: 
  seq: 62
  stamp: 
    secs: 8665
    nsecs: 368000000
  frame_id: "map"
pose: 
  pose: 
    position: 
      x: 2.9574966430664062
      y: 2.9384775161743164
      z: 0.05505602806806564
    orientation: 
      x: 3.5474734739879857e-06
      y: -6.097256676038294e-06
      z: 0.34334164106736437
      w: 0.9392105709386781
  covariance: [0.0016969599710344788, -0.0004670620210336622, 0.0, 0.0, 0.0, -0.00012376363209104011, -0.0004670620210336622, 0.0023943624836793667, 0.0, 0.0, 0.0, 0.0003001581335192721, 0.0, 0.0, 1e-08, 0.0, 0.0, 0.0, 0.0, 0.0, 0.0, 3e-08, 0.0, 0.0, 0.0, 0.0, 0.0, 0.0, 3e-08, 0.0, -0.00012376363209104011, 0.0003001581335192721, 0.0, 0.0, 0.0, 0.00011241705707931251]
---
header: 
  seq: 63
  stamp: 
    secs: 8666
    nsecs: 368000000
  frame_id: "map"
pose: 
  pose: 
    position: 
      x: 2.9616315364837646
      y: 2.9414000511169434
      z: 0.055056098848581314
    orientation: 
      x: 5.724873242300521e-06
      y: -4.121521557870731e-06
      z: -0.06935770409094295
      w: 0.9975918592973957
  covariance: [0.0016987155482080145, -0.0004677077720265562, 0.0, 0.0, 0.0, -0.0001236630293059801, -0.0004677077720265562, 0.00239418127455634, 0.0, 0.0, 0.0, 0.000297935139334419, 0.0, 0.0, 1e-08, 0.0, 0.0, 0.0, 0.0, 0.0, 0.0, 3e-08, 0.0, 0.0, 0.0, 0.0, 0.0, 0.0, 3e-08, 0.0, -0.0001236630293059801, 0.000297935139334419, 0.0, 0.0, 0.0, 0.00011255098635063936]
---
header: 
  seq: 64
  stamp: 
    secs: 8667
    nsecs: 368000000
  frame_id: "map"
pose: 
  pose: 
    position: 
      x: 2.9664297103881836
      y: 2.93807315826416
      z: 0.055056098848581314
    orientation: 
      x: 6.887375361737818e-06
      y: -1.5248490032721152e-06
      z: -0.45771644849242715
      w: 0.8890982307266739
  covariance: [0.0017268865900603755, -0.0004668887467286186, 0.0, 0.0, 0.0, -0.00012300715404612003, -0.0004668887467286186, 0.0024237014068556897, 0.0, 0.0, 0.0, 0.00029691838474029476, 0.0, 0.0, 1e-08, 0.0, 0.0, 0.0, 0.0, 0.0, 0.0, 3e-08, 0.0, 0.0, 0.0, 0.0, 0.0, 0.0, 3e-08, 0.0, -0.00012300715404612003, 0.00029691838474029476, 0.0, 0.0, 0.0, 0.00011548914667830804]
---
header: 
  seq: 65
  stamp: 
    secs: 8668
    nsecs: 368000000
  frame_id: "map"
pose: 
  pose: 
    position: 
      x: 2.973609209060669
      y: 2.93361759185791
      z: 0.05505611374974251
    orientation: 
      x: 6.908814230596753e-06
      y: 1.424573664325292e-06
      z: -0.7812495128859844
      w: 0.6242188340283696
  covariance: [0.0017631742706389788, -0.00046632063287280206, 0.0, 0.0, 0.0, -0.00012238076657118446, -0.00046632063287280206, 0.0024639089181470375, 0.0, 0.0, 0.0, 0.00029679274945459266, 0.0, 0.0, 1e-08, 0.0, 0.0, 0.0, 0.0, 0.0, 0.0, 3e-08, 0.0, 0.0, 0.0, 0.0, 0.0, 0.0, 3e-08, 0.0, -0.00012238076657118446, 0.00029679274945459266, 0.0, 0.0, 0.0, 0.00011926256389502983]
---
header: 
  seq: 66
  stamp: 
    secs: 8669
    nsecs: 368000000
  frame_id: "map"
pose: 
  pose: 
    position: 
      x: 2.833165407180786
      y: 2.503666877746582
      z: 0.05505016818642616
    orientation: 
      x: 6.845588988723765e-06
      y: 1.6928450545814308e-06
      z: -0.8051551482915835
      w: 0.5930641630303987
  covariance: [0.0016958492956689166, -0.0003284737132496599, 0.0, 0.0, 0.0, -7.38412086787237e-05, -0.0003284737132496599, 0.002399410309238686, 0.0, 0.0, 0.0, 0.00028031997049039124, 0.0, 0.0, 1e-08, 0.0, 0.0, 0.0, 0.0, 0.0, 0.0, 3e-08, 0.0, 0.0, 0.0, 0.0, 0.0, 0.0, 3e-08, 0.0, -7.38412086787237e-05, 0.00028031997049039124, 0.0, 0.0, 0.0, 0.00012099949629249198]
---
header: 
  seq: 67
  stamp: 
    secs: 8670
    nsecs: 368000000
  frame_id: "map"
pose: 
  pose: 
    position: 
      x: 2.903019666671753
      y: 2.3338327407836914
      z: 0.05504896119236946
    orientation: 
      x: 7.032243048044609e-06
      y: -5.5192068060283e-07
      z: -0.5770458250431758
      w: 0.8167117884069016
  covariance: [0.0016954304165382476, -0.00028427811815451856, 0.0, 0.0, 0.0, -5.595771991944111e-05, -0.00028427811815451856, 0.00246271778059325, 0.0, 0.0, 0.0, 0.00028920961642326764, 0.0, 0.0, 1e-08, 0.0, 0.0, 0.0, 0.0, 0.0, 0.0, 3e-08, 0.0, 0.0, 0.0, 0.0, 0.0, 0.0, 3e-08, 0.0, -5.595771991944111e-05, 0.00028920961642326764, 0.0, 0.0, 0.0, 0.0001232584040256793]
---
header: 
  seq: 68
  stamp: 
    secs: 8671
    nsecs: 368000000
  frame_id: "map"
pose: 
  pose: 
    position: 
      x: 3.0676109790802
      y: 1.8669750690460205
      z: 0.05504535883665085
    orientation: 
      x: 7.032943703144079e-06
      y: -5.480387964795566e-07
      z: -0.5769757010387874
      w: 0.8167613594145643
  covariance: [0.0013584076848739042, -8.876334981757591e-05, 0.0, 0.0, 0.0, 1.2856291799939704e-06, -8.876334981757591e-05, 0.0018278975326667516, 0.0, 0.0, 0.0, 0.00019507790372700343, 0.0, 0.0, 1e-08, 0.0, 0.0, 0.0, 0.0, 0.0, 0.0, 3e-08, 0.0, 0.0, 0.0, 0.0, 0.0, 0.0, 3e-08, 0.0, 1.2856291799939704e-06, 0.00019507790372700343, 0.0, 0.0, 0.0, 9.897512570903393e-05]
---
header: 
  seq: 69
  stamp: 
    secs: 8672
    nsecs: 368000000
  frame_id: "map"
pose: 
  pose: 
    position: 
      x: 3.155066967010498
      y: 1.6107237339019775
      z: 0.05504334717988968
    orientation: 
      x: 7.008597194714874e-06
      y: 7.934857659685422e-07
      z: -0.7213930239300742
      w: 0.6925258730795865
  covariance: [0.0011448655523308197, -2.7089593792751708e-05, 0.0, 0.0, 0.0, 1.703572421846027e-05, -2.7089593792751708e-05, 0.0014288857297002709, 0.0, 0.0, 0.0, 0.00013609927665731187, 0.0, 0.0, 1e-08, 0.0, 0.0, 0.0, 0.0, 0.0, 0.0, 3e-08, 0.0, 0.0, 0.0, 0.0, 0.0, 0.0, 3e-08, 0.0, 1.703572421846027e-05, 0.00013609927665731187, 0.0, 0.0, 0.0, 8.433082056008936e-05]
---
header: 
  seq: 70
  stamp: 
    secs: 8673
    nsecs: 368000000
  frame_id: "map"
pose: 
  pose: 
    position: 
      x: 3.0030436515808105
      y: 1.310488224029541
      z: 0.05503873527050018
    orientation: 
      x: 6.68976741912135e-06
      y: 2.2306873043018967e-06
      z: -0.849641738101837
      w: 0.5273607039375375
  covariance: [0.0009908551054219738, 6.079375682655027e-07, 0.0, 0.0, 0.0, 2.804055905863078e-05, 6.079375682655027e-07, 0.0011297087986579819, 0.0, 0.0, 0.0, 8.602536121582113e-05, 0.0, 0.0, 1e-08, 0.0, 0.0, 0.0, 0.0, 0.0, 0.0, 3e-08, 0.0, 0.0, 0.0, 0.0, 0.0, 0.0, 3e-08, 0.0, 2.804055905863078e-05, 8.602536121582113e-05, 0.0, 0.0, 0.0, 7.471628520805267e-05]
---
header: 
  seq: 71
  stamp: 
    secs: 8674
    nsecs: 368000000
  frame_id: "map"
pose: 
  pose: 
    position: 
      x: 2.799664258956909
      y: 0.8925796151161194
      z: 0.05503236502408981
    orientation: 
      x: 6.71086288663212e-06
      y: 2.170603963622301e-06
      z: -0.8448269967656232
      w: 0.5350396802037655
  covariance: [0.0008948216150943758, 1.5739360519463336e-05, 0.0, 0.0, 0.0, 4.135434131724604e-05, 1.5739360519463336e-05, 0.0009476250564314201, 0.0, 0.0, 0.0, 5.465159191444027e-05, 0.0, 0.0, 1e-08, 0.0, 0.0, 0.0, 0.0, 0.0, 0.0, 3e-08, 0.0, 0.0, 0.0, 0.0, 0.0, 0.0, 3e-08, 0.0, 4.135434131724604e-05, 5.465159191444027e-05, 0.0, 0.0, 0.0, 6.777993197764992e-05]
---
header: 
  seq: 72
  stamp: 
    secs: 8675
    nsecs: 368000000
  frame_id: "map"
pose: 
  pose: 
    position: 
      x: 2.7999753952026367
      y: 0.9021129012107849
      z: 0.05503247678279877
    orientation: 
      x: 6.976743639564804e-06
      y: -1.0423963917306215e-06
      z: -0.5185858097015914
      w: 0.8550255903519096
  covariance: [0.0008109580614787224, 1.0714150268734441e-05, 0.0, 0.0, 0.0, 3.0137080222015753e-05, 1.0714150268734441e-05, 0.000852036466432245, 0.0, 0.0, 0.0, 4.410224616630684e-05, 0.0, 0.0, 1e-08, 0.0, 0.0, 0.0, 0.0, 0.0, 0.0, 3e-08, 0.0, 0.0, 0.0, 0.0, 0.0, 0.0, 3e-08, 0.0, 3.0137080222015753e-05, 4.410224616630684e-05, 0.0, 0.0, 0.0, 6.361111860206721e-05]
---
header: 
  seq: 73
  stamp: 
    secs: 8676
    nsecs: 368000000
  frame_id: "map"
pose: 
  pose: 
    position: 
      x: 3.0560531616210938
      y: 0.6802608966827393
      z: 0.055032361298799515
    orientation: 
      x: 6.682872516560846e-06
      y: -2.2584012131079966e-06
      z: -0.35937442493076843
      w: 0.9331934561533923
  covariance: [0.0007425193149037071, 2.0846168348649596e-05, 0.0, 0.0, 0.0, 3.181545179324499e-05, 2.0846168348649596e-05, 0.0007802863584166694, 0.0, 0.0, 0.0, 4.604702784194437e-05, 0.0, 0.0, 1e-08, 0.0, 0.0, 0.0, 0.0, 0.0, 0.0, 3e-08, 0.0, 0.0, 0.0, 0.0, 0.0, 0.0, 3e-08, 0.0, 3.181545179324499e-05, 4.604702784194437e-05, 0.0, 0.0, 0.0, 5.906822091418135e-05]
---
header: 
  seq: 74
  stamp: 
    secs: 8677
    nsecs: 368000000
  frame_id: "map"
pose: 
  pose: 
    position: 
      x: 3.42765736579895
      y: 0.34425365924835205
      z: 0.055032070726156235
    orientation: 
      x: 6.683063406937159e-06
      y: -2.2578314579719943e-06
      z: -0.359490788878972
      w: 0.9331486331172388
  covariance: [0.000692738990477593, 3.683758000262281e-05, 0.0, 0.0, 0.0, 3.84126486404663e-05, 3.683758000262281e-05, 0.0007302469734091853, 0.0, 0.0, 0.0, 5.147719160384734e-05, 0.0, 0.0, 1e-08, 0.0, 0.0, 0.0, 0.0, 0.0, 0.0, 3e-08, 0.0, 0.0, 0.0, 0.0, 0.0, 0.0, 3e-08, 0.0, 3.84126486404663e-05, 5.147719160384734e-05, 0.0, 0.0, 0.0, 5.4697936118811335e-05]
---
header: 
  seq: 75
  stamp: 
    secs: 8678
    nsecs: 368000000
  frame_id: "map"
pose: 
  pose: 
    position: 
      x: 3.7322211265563965
      y: 0.07265029102563858
      z: 0.055031873285770416
    orientation: 
      x: 6.549417436694099e-06
      y: -2.6204920615235295e-06
      z: -0.30794038946654795
      w: 0.9514056629286227
  covariance: [0.0006643706473024445, 4.5327488748570385e-05, 0.0, 0.0, 0.0, 3.9928031490806674e-05, 4.5327488748570385e-05, 0.0006995165039686555, 0.0, 0.0, 0.0, 5.155405736469329e-05, 0.0, 0.0, 1e-08, 0.0, 0.0, 0.0, 0.0, 0.0, 0.0, 3e-08, 0.0, 0.0, 0.0, 0.0, 0.0, 0.0, 3e-08, 0.0, 3.9928031490806674e-05, 5.155405736469329e-05, 0.0, 0.0, 0.0, 5.2493440032554916e-05]
---
header: 
  seq: 76
  stamp: 
    secs: 8679
    nsecs: 368000000
  frame_id: "map"
pose: 
  pose: 
    position: 
      x: 3.726151466369629
      y: 0.07370129227638245
      z: 0.05503183230757713
    orientation: 
      x: 4.634861715223494e-06
      y: -5.317771097756364e-06
      z: 0.15946834762873235
      w: 0.9872030475644379
  covariance: [0.0005955443084125082, 3.032657137239502e-05, 0.0, 0.0, 0.0, 2.9818614125181957e-05, 3.032657137239502e-05, 0.0006199221859398727, 0.0, 0.0, 0.0, 3.851665340942519e-05, 0.0, 0.0, 1e-08, 0.0, 0.0, 0.0, 0.0, 0.0, 0.0, 3e-08, 0.0, 0.0, 0.0, 0.0, 0.0, 0.0, 3e-08, 0.0, 2.9818614125181957e-05, 3.851665340942519e-05, 0.0, 0.0, 0.0, 4.8405743956911675e-05]
---
header: 
  seq: 77
  stamp: 
    secs: 8680
    nsecs: 368000000
  frame_id: "map"
pose: 
  pose: 
    position: 
      x: 3.737916946411133
      y: 0.08039811253547668
      z: 0.05503201112151146
    orientation: 
      x: 5.830991327052953e-06
      y: -3.9699775885677235e-06
      z: -0.09576671194522722
      w: 0.9954038137950347
  covariance: [0.0005914053513202287, 2.2948355186960204e-05, 0.0, 0.0, 0.0, 2.3678391036761344e-05, 2.2948355186960204e-05, 0.0006112550710196789, 0.0, 0.0, 0.0, 3.148112428571388e-05, 0.0, 0.0, 1e-08, 0.0, 0.0, 0.0, 0.0, 0.0, 0.0, 3e-08, 0.0, 0.0, 0.0, 0.0, 0.0, 0.0, 3e-08, 0.0, 2.3678391036761344e-05, 3.148112428571388e-05, 0.0, 0.0, 0.0, 4.974240925153615e-05]
---
header: 
  seq: 78
  stamp: 
    secs: 8681
    nsecs: 368000000
  frame_id: "map"
pose: 
  pose: 
    position: 
      x: 3.7447421550750732
      y: 0.07582374662160873
      z: 0.05503202602267265
    orientation: 
      x: 6.928372446992718e-06
      y: -1.3261829391829667e-06
      z: -0.48344378699794127
      w: 0.8753753946759093
  covariance: [0.000591567760387618, 1.7688533430190516e-05, 0.0, 0.0, 0.0, 1.9203076854304376e-05, 1.7688533430190516e-05, 0.0006070573777780357, 0.0, 0.0, 0.0, 2.5562122601905872e-05, 0.0, 0.0, 1e-08, 0.0, 0.0, 0.0, 0.0, 0.0, 0.0, 3e-08, 0.0, 0.0, 0.0, 0.0, 0.0, 0.0, 3e-08, 0.0, 1.9203076854304376e-05, 2.5562122601905872e-05, 0.0, 0.0, 0.0, 5.1245716819688095e-05]
---
header: 
  seq: 79
  stamp: 
    secs: 8682
    nsecs: 368000000
  frame_id: "map"
pose: 
  pose: 
    position: 
      x: 3.7247676849365234
      y: -0.015689723193645477
      z: 0.05503084883093834
    orientation: 
      x: 6.91473953140406e-06
      y: 1.3933802237143639e-06
      z: -0.7787226189834004
      w: 0.6273683498020226
  covariance: [0.0005706233060302061, 1.5187053744933041e-05, 0.0, 0.0, 0.0, 1.9350895320332524e-05, 1.5187053744933041e-05, 0.0005791513163531734, 0.0, 0.0, 0.0, 2.0118131215105116e-05, 0.0, 0.0, 1e-08, 0.0, 0.0, 0.0, 0.0, 0.0, 0.0, 3e-08, 0.0, 0.0, 0.0, 0.0, 0.0, 0.0, 3e-08, 0.0, 1.9350895320332524e-05, 2.0118131215105116e-05, 0.0, 0.0, 0.0, 5.0068875190605245e-05]
---
header: 
  seq: 80
  stamp: 
    secs: 8683
    nsecs: 368000000
  frame_id: "map"
pose: 
  pose: 
    position: 
      x: 3.617405652999878
      y: -0.5002452731132507
      z: 0.055024631321430206
    orientation: 
      x: 6.915310980064726e-06
      y: 1.3923182683101422e-06
      z: -0.7785981757784486
      w: 0.6275228603347988
  covariance: [0.0005553349351775786, 1.526981441124749e-05, 0.0, 0.0, 0.0, 3.2903217337752165e-05, 1.526981441124749e-05, 0.0005385421209372146, 0.0, 0.0, 0.0, 1.2047518971290618e-05, 0.0, 0.0, 1e-08, 0.0, 0.0, 0.0, 0.0, 0.0, 0.0, 3e-08, 0.0, 0.0, 0.0, 0.0, 0.0, 0.0, 3e-08, 0.0, 3.2903217337752165e-05, 1.2047518971290618e-05, 0.0, 0.0, 0.0, 4.754011463051973e-05]
---
header: 
  seq: 81
  stamp: 
    secs: 8684
    nsecs: 368000000
  frame_id: "map"
pose: 
  pose: 
    position: 
      x: 3.511051893234253
      y: -0.9897559285163879
      z: 0.055018357932567596
    orientation: 
      x: 6.915033294798701e-06
      y: 1.3940934264535004e-06
      z: -0.7787433681590733
      w: 0.6273426022643805
  covariance: [0.0005495051886395409, 1.2653735164108188e-05, 0.0, 0.0, 0.0, 4.312741022419316e-05, 1.2653735164108188e-05, 0.000505830761694713, 0.0, 0.0, 0.0, 6.421418974531913e-06, 0.0, 0.0, 1e-08, 0.0, 0.0, 0.0, 0.0, 0.0, 0.0, 3e-08, 0.0, 0.0, 0.0, 0.0, 0.0, 0.0, 3e-08, 0.0, 4.312741022419316e-05, 6.421418974531913e-06, 0.0, 0.0, 0.0, 4.5015314837054046e-05]
---
header: 
  seq: 82
  stamp: 
    secs: 8685
    nsecs: 368000000
  frame_id: "map"
pose: 
  pose: 
    position: 
      x: 3.403512954711914
      y: -1.47809898853302
      z: 0.055012088268995285
    orientation: 
      x: 6.915914622592352e-06
      y: 1.3897240448680084e-06
      z: -0.7783815902924783
      w: 0.6277914651524515
  covariance: [0.0005569547894094696, 8.194951166503819e-06, 0.0, 0.0, 0.0, 5.0294264427509806e-05, 8.194951166503819e-06, 0.00048750329463279323, 0.0, 0.0, 0.0, 2.0488838623010055e-06, 0.0, 0.0, 1e-08, 0.0, 0.0, 0.0, 0.0, 0.0, 0.0, 3e-08, 0.0, 0.0, 0.0, 0.0, 0.0, 0.0, 3e-08, 0.0, 5.0294264427509806e-05, 2.0488838623010055e-06, 0.0, 0.0, 0.0, 4.353800387243276e-05]
---
header: 
  seq: 83
  stamp: 
    secs: 8686
    nsecs: 368000000
  frame_id: "map"
pose: 
  pose: 
    position: 
      x: 3.296140670776367
      y: -1.9666221141815186
      z: 0.05500582605600357
    orientation: 
      x: 6.9157028783787815e-06
      y: 1.390767931807471e-06
      z: -0.7785440727421514
      w: 0.6275900104450992
  covariance: [0.0005493245760772725, 3.3802673724511377e-06, 0.0, 0.0, 0.0, 5.338426308295151e-05, 3.3802673724511377e-06, 0.00046029894493822455, 0.0, 0.0, 0.0, -1.0448148706485713e-06, 0.0, 0.0, 1e-08, 0.0, 0.0, 0.0, 0.0, 0.0, 0.0, 3e-08, 0.0, 0.0, 0.0, 0.0, 0.0, 0.0, 3e-08, 0.0, 5.338426308295151e-05, -1.0448148706485713e-06, 0.0, 0.0, 0.0, 4.09253151173806e-05]
---
header: 
  seq: 84
  stamp: 
    secs: 8687
    nsecs: 368000000
  frame_id: "map"
pose: 
  pose: 
    position: 
      x: 3.27492356300354
      y: -2.0676543712615967
      z: 0.05500452592968941
    orientation: 
      x: 6.998921590425839e-06
      y: -8.812134506228001e-07
      z: -0.538557529944335
      w: 0.8425887735442905
  covariance: [0.0005143866039920419, 3.0211444255765184e-06, 0.0, 0.0, 0.0, 4.359798462621002e-05, 3.0211444255765184e-06, 0.00044270241329099865, 0.0, 0.0, 0.0, -7.601674641015872e-07, 0.0, 0.0, 1e-08, 0.0, 0.0, 0.0, 0.0, 0.0, 0.0, 3e-08, 0.0, 0.0, 0.0, 0.0, 0.0, 0.0, 3e-08, 0.0, 4.359798462621002e-05, -7.601674641015872e-07, 0.0, 0.0, 0.0, 3.9577858778069074e-05]
---
header: 
  seq: 85
  stamp: 
    secs: 8688
    nsecs: 368000000
  frame_id: "map"
pose: 
  pose: 
    position: 
      x: 3.273937225341797
      y: -2.0646934509277344
      z: 0.0550045520067215
    orientation: 
      x: 5.911497789986855e-06
      y: -3.849088009068758e-06
      z: -0.11660314767495533
      w: 0.9931785860003101
  covariance: [0.0004927649714559, 2.969652668623403e-06, 0.0, 0.0, 0.0, 3.4852786171649114e-05, 2.969652668623403e-06, 0.0004377899031454203, 0.0, 0.0, 0.0, -3.06080344021908e-07, 0.0, 0.0, 1e-08, 0.0, 0.0, 0.0, 0.0, 0.0, 0.0, 3e-08, 0.0, 0.0, 0.0, 0.0, 0.0, 0.0, 3e-08, 0.0, 3.4852786171649114e-05, -3.06080344021908e-07, 0.0, 0.0, 0.0, 3.95875429405131e-05]
---
header: 
  seq: 86
  stamp: 
    secs: 8689
    nsecs: 368000000
  frame_id: "map"
pose: 
  pose: 
    position: 
      x: 3.270982265472412
      y: -2.0644969940185547
      z: 0.05500452220439911
    orientation: 
      x: 5.79635889154471e-06
      y: -4.020379314882772e-06
      z: -0.0875996606389663
      w: 0.996155755600177
  covariance: [0.0004839594217304993, 2.8149287278886587e-06, 0.0, 0.0, 0.0, 2.8078912308278623e-05, 2.8149287278886587e-06, 0.0004405550910398187, 0.0, 0.0, 0.0, 2.7148556526977906e-08, 0.0, 0.0, 1e-08, 0.0, 0.0, 0.0, 0.0, 0.0, 0.0, 3e-08, 0.0, 0.0, 0.0, 0.0, 0.0, 0.0, 3e-08, 0.0, 2.8078912308278623e-05, 2.7148556526977906e-08, 0.0, 0.0, 0.0, 4.037596567021372e-05]
---
header: 
  seq: 87
  stamp: 
    secs: 8690
    nsecs: 368000000
  frame_id: "map"
pose: 
  pose: 
    position: 
      x: 3.2775278091430664
      y: -2.0661816596984863
      z: 0.05500456318259239
    orientation: 
      x: 6.702322619647537e-06
      y: -2.2000208621347487e-06
      z: -0.3682887962184416
      w: 0.9297114457324365
